{
  "stations": {
    "ActonTown": {
      "title": "Acton Town",
      "position": {
        "lat": 51.502500,
        "lon": 0.278126
      }
    },
    "Aldgate": {
      "title": "Alexandra\nArms",

      "position": {
        "lat": 51.51394,
        "lon": 0.07537
      }
    },
    "AldgateEast": {
      "title": "Aldgate East",

      "position": {
        "lat": 51.51514,
        "lon": 0.07178
      }
    },
    "Alperton": {
      "title": "Alperton",
      "position": {
        "lat": 51.51514,
        "lon": 0.07178
      }
    },
    "Amersham": {
      "title": "Amersham",
      "position": {
        "lat": 51.67435,
        "lon": 0.60732
      }
    },
    "Angel": {
      "title": "Angel",
      "position": {
        "lat": 51.53253,
        "lon": 0.10579
      }
    },
    "Archway": {
      "title": "Archway",
      "position": {
        "lat": 51.56536,
        "lon": 0.13474
      }
    },
    "ArnosGrove": {
      "title": "Arnos Grove",
      "position": {
        "lat": 51.61625,
        "lon": 0.13355
      }
    },
    "Arsenal": {
      "title": "Architect",
      "position": {
        "lat": 51.55847,
        "lon": 0.10561
      }
    },
    "BakerStreet": {
      "title": "Baker Street",

      "position": {
        "lat": 51.52265,
        "lon": 0.15704
      }
    },
    "Balham": {
      "title": "Balham",



      "position": {
        "lat": 51.44344113,
        "lon": 0.152945844
      }
    },
    "Bank": {
      "title": "Bank",



      "position": {
        "lat": 51.5134047,
        "lon": 0.08905843
      }
    },
    "Barbican": {
      "title": "Barbican",



      "position": {
        "lat": 51.520865,
        "lon": 0.097758
      }
    },

    "Barking": {
      "title": "Barking",



      "position": {
        "lat": 51.54079,
        "lon": 0.08018
      }
    },
    "Barkingside": {
      "title": "Barkingside",



      "position": {
        "lat": 51.58543,
        "lon": 0.08854
      }
    },
    "BaronsCourt": {
      "title": "Barons Court",
      "position": {
        "lat": 51.490281,
        "lon": 0.214340
      }
    },
    "Bayswater": {
      "title": "Blue Ball Inn",
      "position": {
        "lat": 51.51224,
        "lon": 0.187569
      }
    },
    "Becontree": {
      "title": "Blue Moon",
      "position": {
        "lat": 51.54029,
        "lon": 0.12620
      }
    },
    "BelsizePark": {
      "title": "Belsize Park",
      "position": {
        "lat": 51.55036,
        "lon": 0.16465
      }
    },
    "Bermondsey": {
      "title": "Belsize Park",
      "position": {
        "lat": 51.49813,
        "lon": 0.06350
      }
    },
    "BethnalGreen": {
      "title": "Bethnal\n Green",
      "position": {
        "lat": 51.52718,
        "lon": 0.05504
      }
    },

    "Blackfriars": {
      "title": "Blackfriars",
      "position": {
        "lat": 51.5114403,
        "lon": 0.10419050
      }
    },
    "BlackhorseRoad": {
      "title": "Blackhorse\n Road",
      "position": {
        "lat": 51.58698,
        "lon": 0.04104
      }
    },
    "BondStreet": {
      "title": "Bond\nStreet",
      "position": {
        "lat": 51.58698,
        "lon": 0.04104
      }
    },
    "Borough": {
      "title": "Borough",
      "position": {
        "lat": 51.50095,
        "lon": 0.09446
      }
    },
    "BostonManor": {
      "title": "Borough Manor",
      "position": {
        "lat": 51.495371,
        "lon": 0.325573
      }
    },



    "BostonManor": {
      "title": "Boston Manor",
      "position": {
        "lat": 51.495371,
        "lon": 0.325573
      }
    },

    "BoundsGreen": {
      "title": "Bounds Green",
      "position": {
        "lat": 51.60700,
        "lon": 0.12418
      }
    },
    "BowRoad": {
      "title": "Bow Road",
      "position": {
        "lat": 51.52709,
        "lon": 0.02482
      }
    },
    "BrentCross": {
      "title": "Brent Cross",
      "position": {
        "lat": 51.57693,
        "lon": 0.21414
      }
    },
    "Brixton": {
      "title": "Brixton",
      "position": {
        "lat": 51.46239,
        "lon": 0.115421
      }
    },
    "Bromley-by-Bow": {
      "title": "Bromley-by-Bow",
      "position": {
        "lat": 51.52466,
        "lon": 0.01282
      }
    },
    "BuckhurstHill": {
      "title": "Buckhurst Hill",
      "position": {
        "lat": 51.62611,
        "lon": 0.04705
      }
    },
    "BurntOak": {
      "title": "Burnt Oak",
      "position": {
        "lat": 51.60300,
        "lon": 0.26427
      }
    },

    "CaledonianRoad": {
      "title": "Caledonian Road",
      "position": {
        "lat": 51.54850,
        "lon": 0.11802
      }
    },
    "CamdenTown": {
      "title": "Camden Town",
      "position": {
        "lat": 51.53930,
        "lon": 0.14316
      }
    },
    "CanadaWater": {
      "title": "Canada Water",
      "position": {
        "lat": 51.49787,
        "lon": 0.04967
      }
    },
    "CanaryWharf": {
      "title": "Canary Wharf",

      "position": {
        "lat": 51.50362,
        "lon": 0.01987
      }
    },
    "CanningTown": {
      "title": "Canning Town",

      "position": {
        "lat": 51.51141,
        "lon": 0.09047
      }
    },
    "CannonStreet": {
      "title": "Champion\nof the\nThames",

      "position": {
        "lat": 51.51141,
        "lon": 0.09047
      }
    },
    "CanonsPark": {
      "title": "Canons Park",

      "position": {
        "lat": 51.60810,
        "lon": 0.29487
      }
    },
    "Chalfont&Latimer": {
      "title": "Chalfont & Latimer",

      "position": {
        "lat": 51.66822,
        "lon": 0.56053
      }
    },
    "ChalkFarm": {
      "title": "Chalk Farm",

      "position": {
        "lat": 51.54390,
        "lon": 0.15384
      }
    },
    "ChanceryLane": {
      "title": "Chancery Lane",

      "position": {
        "lat": 51.51836,
        "lon": 0.11115
      }
    },
    "CharingCross": {
      "title": "Chancery Lane",

      "position": {
        "lat": 51.507108,
        "lon": 0.122963
      }
    },
    "Chesham": {
      "title": "Chesham",

      "position": {
        "lat": 51.70522733,
        "lon": 0.610986426
      }
    },
    "Chigwell": {
      "title": "Chesham",

      "position": {
        "lat": 51.61795,
        "lon": 0.07511
      }
    },
    "ChiswickPark": {
      "title": "Chiswick\n Park",

      "position": {
        "lat": 51.49466,
        "lon": 0.26866
      }
    },
    "Chorleywood": {
      "title": "Chorleywood",

      "position": {
        "lat": 51.65429872,
        "lon": 0.518373353
      }
    },
    "ClaphamCommon": {
      "title": "Clapham Common",


      "position": {
        "lat": 51.46156,
        "lon": 0.13802
      }
    },

    "ClaphamNorth": {
      "title": "Clapham North",


      "position": {
        "lat": 51.46522,
        "lon": 0.12950
      }
    },
    "ClaphamSouth": {
      "title": "Clapham South",


      "position": {
        "lat": 51.45292257,
        "lon": 0.147562148
      }
    },

    "Cockfosters": {
      "title": "Cockfosters",


      "position": {
        "lat": 51.65117,
        "lon": 0.14811
      }
    },
    "Colindale": {
      "title": "Colindale",


      "position": {
        "lat": 51.59556,
        "lon": 0.24996
      }
    },
    "ColliersWood": {
      "title": "Colliers Wood",


      "position": {
        "lat": 51.41823649,
        "lon": 0.17800983
      }
    },
    "ConventGarden": {
      "title": "Convent Garden",


      "position": {
        "lat": 51.51308,
        "lon": 0.12427
      }
    },
    "Croxley": {
      "title": "Croxley",


      "position": {
        "lat": 51.64733268,
        "lon": 0.441479115
      }
    },
    "DagenhamEast": {
      "title": "Dagenham East",
      "position": {
        "lat": 51.54396,
        "lon": 0.16439
      }
    },
    "DagenhamHeathway": {
      "title": "Dagenham Heathway",
      "position": {
        "lat": 51.54173,
        "lon": 0.14543
      }
    },
    "Debden": {
      "title": "Debden",
      "position": {
        "lat": 51.64535,
        "lon": 0.08364
      }
    },
    "DollisHill": {
      "title": "Dollis Hill",
      "position": {
        "lat": 51.55250,
        "lon": 0.23884
      }
    },

    "DollisHill": {
      "title": "Dollis Hill",
      "position": {
        "lat": 51.55250,
        "lon": 0.23884
      }
    },
    "EalingBroadway": {
      "title": "Ealing\nBroadway",
      "position": {
        "lat": 51.51482,
        "lon": 0.30118
      }
    },
    "EalingCommon": {
      "title": "Ealing Common",
      "position": {
        "lat": 51.50997,
        "lon": 0.28825
      }
    },
    "EarlsCourt": {
      "title": "Earl's\n Court",
      "position": {
        "lat": 51.491521,
        "lon": 0.193906
      }
    },
    "EastActon": {
      "title": "East\nActon",


      "position": {
        "lat": 51.51753,
        "lon": 0.24827
      }
    },
    "EastFinchley": {
      "title": "East Acton",
      "position": {
        "lat": 51.5872974705487,
        "lon": 0.16495632312818
      }
    },
    "EastHam": {
      "title": "East Ham",

      "position": {
        "lat": 51.53931,
        "lon": 0.05260
      }
    },
    "EastPutney": {
      "title": "East Putney",
      "position": {
        "lat": 51.459015,
        "lon": 51.459015
      }
    },
    "Eastcote": {
      "title": "Eastcote",
      "position": {
        "lat": 51.57676,
        "lon": 0.39629
      }
    },
    "Edgware": {
      "title": "Edgware",



      "position": {
        "lat": 51.61385,
        "lon": -0.27515
      }
    },
    "EdgwareRoad": {
      "title": "Eddgeware Road",



      "position": {
        "lat": 51.520195,
        "lon": 0.166986
      }
    },

    "Elephant&Castle": {
      "title": "Elephant & Castle",



      "position": {
        "lat": 51.49467,
        "lon": 0.10047
      }
    },

    "ElmPark": {
      "title": "Elm Park",



      "position": {
        "lat": 51.54969,
        "lon": 0.19779
      }
    },
    "Embankment": {
      "title": "Embankment",


      "position": {
        "lat": 51.50717,
        "lon": 0.12195
      }
    },
    "Epping": {
      "title": "Epping",


      "position": {
        "lat": 51.69365,
        "lon": 0.11495
      }
    },

    "Euston": {
      "title": "Euston",


      "position": {
        "lat": 51.52774,
        "lon": -0.13303
      }
    },
    "EustonSquare": {
      "title": "Euston Square",


      "position": {
        "lat": 51.52584,
        "lon": -0.13570
      }
    },
    "Fairlop": {
      "title": "Fairlop",


      "position": {
        "lat": 51.59634,
        "lon": 0.09125
      }
    },
    "Farringdon": {
      "title": "Farringdon",


      "position": {
        "lat": 51.520362948,
        "lon": -0.105126482
      }
    },
    "FinchleyCentral": {
      "title": "Finchley Central",


      "position": {
        "lat": 51.60102,
        "lon": -0.19240
      }
    },
    "FinchleyRoad": {
      "title": "Finchley Road",


      "position": {
        "lat": 51.546701,
        "lon": -0.179867
      }
    },
    "FinsburyPark": {
      "title": "Finsbury\n Park",


      "position": {
        "lat": 51.56498,
        "lon": 0.10543
      }
    },
    "FulhamBroadway": {
      "title": "Fulham Broadway",


      "position": {
        "lat": 52.194474,
        "lon": 0.131747
      }
    },
    "GantsHill": {
      "title": "Gants Hill",
      "address": "Cambridge CB4 1HA",

      "position": {
        "lat": 51.57649,
        "lon": 0.06637
      }
    },
    "GloucsterRoad": {
      "title": "Gloucster Road",
      "phone": "01223 314264",
      "position": {
        "lat": 51.49408266,
        "lon": 0.17295341
      }
    },
    "GoldersGreen": {
      "title": "GoldersGreen",
      "phone": "01223 420816",
      "position": {
        "lat": 52.227922,
        "lon": 0.145524
      }
    },
    "GoldhawkRoad": {
      "title": "Goldhawk Road",
      "phone": "01223 323405",
      "position": {
        "lat": 52.200689,
        "lon": 0.126622
      }
    },
    "GoodgeStreet": {
      "title": "Goodge Street",
      "phone": "01223 505016",
      "position": {
        "lat": 51.52060,
        "lon": -0.13441
      }
    },
    "GrangeHill": {
      "title": "Grange\nHill",
      "phone": "01223 505035",
      "position": {
        "lat": 51.61326,
        "lon": 0.09258
      }
    },
    "GreatPortlandStreet": {
      "title": "Great Portland Street",


      "phone": "01223 844669",
      "position": {
        "lat": 51.52391,
        "lon": -0.14397
      }
    },
    "Greenford": {
      "title": "Greenford",


      "phone": "01223 844903",
      "position": {
        "lat": 51.542346,
        "lon": -0.345903
      }
    },
    "Gunnersbury": {
      "title": "Gunnersbury",


      "phone": "01223 844903",
      "position": {
        "lat": 51.49126844,
        "lon": -0.275554312
      }
    },
    "GreenPark": {
      "title": "Green Park",


      "phone": "01223 844903",
      "position": {
        "lat": 51.50674,
        "lon": 0.14276
      }
    },
    "Hainault": {
      "title": "Hainault",


      "phone": "01223 311077",
      "position": {
        "lat": 51.60288,
        "lon": 0.09332
      }
    },
    "Hammersmith": {
      "title": "Hammersmith",


      "phone": "01223 311077",
      "position": {
        "lat": 52.217339,
        "lon": 0.139439
      }
    },
    "Hampstead": {
      "title": "Hampstead",


      "phone": "01223 311077",
      "position": {
        "lat": 51.55645,
        "lon": -0.17851
      }
    },
    "HangerLane": {
      "title": "Hanger Lane",


      "phone": "01223 311077",
      "position": {
        "lat": 51.5300,
        "lon": -0.2929
      }
    },
    "Harlesden": {
      "title": "Harlesden",


      "phone": "01223 311077",
      "position": {
        "lat": 51.53628278,
        "lon": -0.257622488
      }
    },
    "Harrow&Wealdstone": {
      "title": "Harrow & Wealdstone",


      "phone": "01223 311077",
      "position": {
        "lat": 51.59205973,
        "lon": -0.334725352
      }
    },
    "Harrow-on-the-Hill": {
      "title": "Harrow-\non-the-Hill",


      "phone": "01223 311077",
      "position": {
        "lat": 51.579335,
        "lon": -0.337052
      }
    },
    "HattonCross": {
      "title": "Hatton Cross",


      "phone": "01223 311077",
      "position": {
        "lat": 51.466988,
        "lon": 0.423035
      }
    },
    "HeathrowTerminal5": {
      "title": "Heathrow Terminal 5",


      "phone": "01223 311077",
      "position": {
        "lat": 51.4715,
        "lon": 0.4880
      }
    },
    "HeathrowTerminals123": {
      "title": "Heathrow Terminals 123",


      "phone": "01223 311077",
      "position": {
        "lat": 51.4715,
        "lon": 0.4880
      }
    },"HeathrowTerminal4": {
      "title": "Heathrow Terminal 4",


      "phone": "01223 311077",
      "position": {
        "lat": 51.4715,
        "lon": 0.4880
      }
    },

    "HendonCentral": {
      "title": "Hendon Central",


      "phone": "01223 311077",
      "position": {
        "lat": 51.4715,
        "lon": 0.4880
      }
    },
    "HighBarnet": {
      "title": "High Barnet",


      "phone": "01223 311077",
      "position": {
        "lat": 51.6506519031751,
        "lon": -0.194138165994553
      }
    },
    "HighStreetKensingtion": {
      "title": "High Street\n Kensington",


      "phone": "01223 311077",
      "position": {
        "lat": 51.5003459144,
        "lon": 0.1923516640
      }
    },
    "Highbury&Islington": {
      "title": "Highbury\n & Islington",


      "phone": "01223 311077",
      "position": {
        "lat": 51.54502,
        "lon": -0.10752
      }
    },
    "Highgate": {
      "title": "Highgate",


      "phone": "01223 311077",
      "position": {
        "lat": 51.57722,
        "lon": -0.14553
      }
    },
    "Hillingdon": {
      "title": "Hillingdon",


      "phone": "01223 311077",
      "position": {
        "lat": 51.55364,
        "lon": -0.45062
      }
    },
    "Holborn": {
      "title": "Holborn",


      "phone": "01223 367204",
      "position": {
        "lat": 51.51711,
        "lon": 0.12055
      }
    },
    "HollandPark": {
      "title": "Holland\nPark",


      "phone": "01223 367204",
      "position": {
        "lat": 51.50722,
        "lon": -0.20553
      }
    },
    "HollowayRoad": {
      "title": "Holloway Road",


      "phone": "01223 367204",
      "position": {
        "lat": 51.55290,
        "lon": 0.11278
      }
    },
    "Hornchurch": {
      "title": "Hornchurch",


      "phone": "01223 367204",
      "position": {
        "lat": 51.55387,
        "lon": 0.21797
      }
    },
"HunslowCentral": {
      "title": "Hunslow Central",


      "phone": "01223 311077",
      "position": {
        "lat": 51.471290,
        "lon": 0.365853
      }
    },"HunslowWest": {
      "title": "Hunslow West",


      "phone": "01223 311077",
      "position": {
        "lat": 51.4715,
        "lon": 0.386471
      }
    },"HunslowEast": {
      "title": "Hunslow East",


      "phone": "01223 311077",
      "position": {
        "lat": 51.473540,
        "lon": 0.356000
      }
    },
    "HydeParkCorner": {
      "title": "Hyde Park Corner",


      "phone": "01223 311077",
      "position": {
        "lat": 51.50313,
        "lon": -0.15278
      }
    },
    "Ickenham": {
      "title": "Ickenham",
      "position": {
        "lat": 51.56147,
        "lon": -0.44257
      }
    },
    "Kennington": {
      "title": "Kennington",

      "position": {
        "lat": 51.48823,
        "lon": -0.10587
      }
    },
    "KensalGreen": {
      "title": "Kensal Green",

      "position": {
        "lat": 51.53060655,
        "lon": -0.224253545
      }
    },
    "KentishTown": {
      "title": "Kentish Town",
      "position": {
        "lat": 51.53060655,
        "lon": -0.224253545
      }
    },
    "Kenton": {
      "title": "Kentish Town West",
      "position": {
        "lat": 51.58173809,
        "lon": -0.316870809
      }
    },
    "KewGardens": {
      "title": "Kew Gardens",
      "position": {
        "lat": 51.58173809,
        "lon": -0.316870809
      }
    },
    "Kilburn": {
      "title": "Kilburn",
      "position": {
        "lat": 51.5471715,
        "lon": -0.2050020
      }
    },
    "KilburnPark": {
      "title": "Kilburn Park",
      "position": {
        "lat": 51.53495818,
        "lon": -0.193963023
      }
    },
    "KingsCrossStPancras": {
      "title": "King's Cross\n St. Pancras",
      "position": {
        "lat": 51.53057,
        "lon": 0.12399
      }
    },
    "Kingsbury": {
      "title": "Kingsbury",
      "position": {
        "lat": 51.58422,
        "lon": -0.27880
      }
    },
    "Knightsbridge": {
      "title": "Knightsbridge",
      "position": {
        "lat": 51.50169,
        "lon": 0.16030
      }
    },
    "LadbrokeGrove": {
      "title": "Ladbroke Grove",
      "position": {
        "lat": 51.517300,
        "lon": -0.211140
      }
    },
    "LambethNorth": {
      "title": "Lambeth North",
      "position": {
        "lat": 51.49894,
        "lon": -0.11216
      }
    },
    "LancasterGate": {
      "title": "Lancaster\nGate",
      "position": {
        "lat": 51.512083,
        "lon": -0.175067
      }
    },
    "LatimerRoad": {
      "title": "Latimer Road",
      "position": {
        "lat": 51.513125,
        "lon": -0.218428
      }
    },
    "LeicesterSquare": {
      "title": "Leicester Square",
      "position": {
        "lat": 51.51148,
        "lon": 0.12849
      }
    },

    "Leyton": {
      "title": "Leyton",
      "position": {
        "lat": 51.556483,
        "lon": -0.005669
      }
    },
    "LeytonStone": {
      "title": "Leytonstone",
      "position": {
        "lat": 51.56828,
        "lon": 0.00739
      }
    },
    "LiverpoolStreet": {
      "title": "Liverpool Street",
      "position": {
        "lat": 51.517675,
        "lon": -0.0824580
      }
    },
    "LondonBridge": {
      "title": "London\n Bridge",
      "position": {
        "lat": 51.505353,
        "lon": -0.084826
      }
    },
    "Loughton": {
      "title": "Loughton",
      "position": {
        "lat": 51.64170,
        "lon": 0.05583
      }
    },
    "MaidaVale": {
      "title": "Maida Vale",
      "position": {
        "lat": 51.52989409,
        "lon": -0.185888819
      }
    },
    "ManorHouse": {
      "title": "Manor House",
      "position": {
        "lat": 51.57038,
        "lon": 0.09601
      }
    },
    "MansionHouse": {
      "title": "Mansion House",
      "position": {
        "lat": 51.51256,
        "lon": -0.09397
      }
    },
    "MarbleArch": {
      "title": "Marble\nArch",
      "position": {
        "lat": 52.209671,
        "lon": 0.119232
      }
    },
    "Marylebone": {
      "title": "Marylebone",
      "position": {
        "lat": 51.522660,
        "lon": -0.162996
      }
    },
    "MileEnd": {
      "title": "Mile End",
      "position": {
        "lat": 51.522660,
        "lon": -0.162996
      }
    },
    "MillHillEast": {
      "title": "MillHillEast",
      "position": {
        "lat": 51.60892,
        "lon": -0.20965
      }
    },
    "Monument": {
      "title": "Monument",
      "position": {
        "lat": 51.510165,
        "lon": -0.085991
      }
    },
    "MoorPark": {
      "title": "MoorPark",
      "position": {
        "lat": 51.510165,
        "lon": -0.085991
      }
    },
    "Moorgate": {
      "title": "Moorgate",
      "position": {
        "lat": 51.51817,
        "lon": -0.08859
      }
    },
    "Morden": {
      "title": "Morden",
      "position": {
        "lat": 51.40222413,
        "lon": -0.194599126
      }
    },
    "MorningtonCrescent": {
      "title": "Mornington\n Crescent",
      "position": {
        "lat": 52.201552,
        "lon": 0.116128
      }
    },
    "Neasden": {
      "title": "Neasden",
      "position": {
        "lat": 51.55427,
        "lon": -0.25042
      }
    },
    "NewburyPark": {
      "title": "Newbury\nPark",
      "position": {
        "lat": 51.57565,
        "lon": 0.08927
      }
    },
    "NorthActon": {
      "title": "North\nActon",
      "position": {
        "lat": 51.52370,
        "lon": -0.26019
      }
    },
    "NorthEaling": {
      "title": "North\nEaling",
      "position": {
        "lat": 51.51807,
        "lon": -0.26019
      }
    },
    "NorthGreenwich": {
      "title": "North Greenwich",
      "position": {
        "lat": 51.50056,
        "lon": 0.00360
      }
    },
    "NorthHarrow": {
      "title": "North Harrow",
      "position": {
        "lat": 51.58503612,
        "lon": -0.362595264
      }
    },
    "NorthWembley": {
      "title": "North Wembley",
      "position": {
        "lat": 51.56258091,
        "lon": -0.304072648
      }
    },
    "Northfields": {
      "title": "Northfields",
      "position": {
        "lat": 52.208852,
        "lon": 0.118185
      }
    },
    "Northholt": {
      "title": "Northholt",
      "position": {
        "lat": 51.548054,
        "lon": -0.368257
      }
    },
    "NorthwickPark": {
      "title": "Northwick Park",
      "position": {
        "lat": 51.548054,
        "lon": -0.368257
      }
    },
    "Northwood": {
      "title": "Northwick Park",
      "position": {
        "lat": 51.61098984,
        "lon": -0.423584422
      }
    },
    "NorthwoodHills": {
      "title": "Northwood Hills",
      "position": {
        "lat": 51.60043795,
        "lon": -0.408812575
      }
    },
    "NottingHillGate": {
      "title": "Notting\nHill Gate",
      "position": {
        "lat": 51.509028,
        "lon": -0.1962847
      }
    },
    "Oakwood": {
      "title": "Oakwood",
      "position": {
        "lat": 51.64739,
        "lon": 0.13192
      }
    },
    "OldStreet": {
      "title": "Old Street",
      "position": {
        "lat": 51.52618,
        "lon": -0.08751
      }
    },
    "Osterly": {
      "title": "Osterly",
      "position": {
        "lat": 51.481569,
        "lon": 0.351960
      }
    },
    "Oval": {
      "title": "Oval",
      "position": {
        "lat": 51.48214,
        "lon": -0.11284
      }
    },
    "OxfordCircus": {
      "title": "Oxford Circus",
      "position": {
        "lat": 51.51517,
        "lon": -0.14119
      }
    },
    "Paddington": {
      "title": "Paddington",
      "position": {
        "lat": 51.5151846554,
        "lon": -0.17553880792
      }
    },
    "ParkRoyal": {
      "title": "Paddington",
      "position": {
        "lat": 51.52671,
        "lon": -0.28417
      }
    },
    "ParsonsGreen": {
      "title": "Parsons Green",
      "position": {
        "lat": 51.47488,
        "lon": -0.20205
      }
    },
    "Perivale": {
      "title": "Perivale",
      "position": {
        "lat": 51.536673,
        "lon": -0.32391
      }
    },
    "PiccadillyCircus": {
      "title": "Piccadilly Circus",
      "position": {
        "lat": 51.51022,
        "lon": 0.13392
      }
    },
    "Pimlico": {
      "title": "Pimlico",
      "position": {
        "lat": 51.489081,
        "lon": -0.133037
      }
    },
    "Pinner": {
      "title": "Pinner",
      "position": {
        "lat": 51.59270271,
        "lon": -0.380539158
      }
    },
    "Plaistow": {
      "title": "Plaistow",
      "position": {
        "lat": 51.53122,
        "lon": 0.01659
      }
    },
    "PrestonRoad": {
      "title": "Preston Road",
      "position": {
        "lat": 51.57229051,
        "lon": -0.295813875
      }
    },
    "PutneyBridge": {
      "title": "Putney Bridge",
      "position": {
        "lat": 51.46868,
        "lon": -0.2088141
      }
    },
    "QueensPark": {
      "title": "Queens Park",
      "position": {
        "lat": 51.534179,
        "lon": -0.205257721
      }
    },
    "Queensbury": {
      "title": "Queensbury",
      "position": {
        "lat": 51.59437,
        "lon": -0.28655
      }
    },
    "Queensway": {
      "title": "Queensway",
      "position": {
        "lat": 51.510484,
        "lon": -0.187050
      }
    },
    "RavenscourtPark": {
      "title": "Ravenscourt\n Park",
      "position": {
        "lat": 51.494190,
        "lon": -0.235600
      }
    },
    "RaynersLane": {
      "title": "Rayners Lane",
      "position": {
        "lat": 51.57534,
        "lon": -0.37240
      }
    },
    "Redbridge": {
      "title": "Redbridge",
      "position": {
        "lat": 51.57618,
        "lon": 0.04542
      }
    },
    "RegentsPark": {
      "title": "RegentsPark",
      "position": {
        "lat": 51.52344,
        "lon": -0.14713
      }
    },
    "Richmond": {
      "title": "Richmond",
      "position": {
        "lat": 51.46343247,
        "lon": -0.302033247
      }
    },
    "Rickmansworth": {
      "title": "Rickmansworth",
      "position": {
        "lat": 51.64027898,
        "lon": -0.473521454
      }
    },
    "RodingValley": {
      "title": "Roding\nValley",
      "position": {
        "lat": 51.61691,
        "lon": 0.04264
      }
    },
    "RoyalOak": {
      "title": "RoyalOak",
      "position": {
        "lat": 51.519383,
        "lon": -0.187785
      }
    },
    "Ruislip": {
      "title": "Ruislip",
      "position": {
        "lat": 51.57146,
        "lon": -0.42157
      }
    },
    "RuislipGardens": {
      "title": "Ruislip Gardens",
      "position": {
        "lat": 51.560711,
        "lon": -0.410587
      }
    },
    "RuislipManor": {
      "title": "Ruislip\n Manor",
      "position": {
        "lat": 51.57349,
        "lon": -0.41185
      }
    },
    "RussellSquare": {
      "title": "Russell Square",
      "position": {
        "lat": 51.523243,
        "lon": 0.124336
      }
    },
    "StJamessPark": {
      "title": "St. James's \nPark",
      "position": {
        "lat": 51.49971,
        "lon": -0.13394
      }
    },
    "SevenSisters": {
      "title": "Seven Sisters",
      "position": {
        "lat": 51.58318,
        "lon": -0.07495
      }
    },
    "ShepardsBush": {
      "title": "Shepard's\nBush",
      "position": {
        "lat": 51.50474,
        "lon": -0.21881
      }
    },
    "ShepardsBushMarket": {
      "title": "Shepard's Bush\n Market",
      "position": {
        "lat": 51.506063,
        "lon": -0.226231
      }
    },
    "SloaneSquare": {
      "title": "Sloane\nSquare",
      "position": {
        "lat": 51.49258474,
        "lon": -0.156090904
      }
    },
    "Snaresbrook": {
      "title": "Snaresbrook",
      "position": {
        "lat": 51.58002,
        "lon": 0.02133
      }
    },
    "SouthEaling": {
      "title": "South Ealing",
      "position": {
        "lat": 51.500801,
        "lon": 0.307856
      }
    },
    "SouthHarrow": {
      "title": "South Harrow",
      "position": {
        "lat": 51.56461,
        "lon": -0.35210
      }
    },
    "SouthKensington": {
      "title": "South \nKensington",
      "position": {
        "lat": 51.494066,
        "lon": 0.172791
      }
    },"SouthKenton": {
      "title": "South Kenton",
      "position": {
        "lat": 51.57044666,
        "lon": -0.308566354
      }
    },
    "SouthRuislip": {
      "title": "South Ruislip",
      "position": {
        "lat": 51.556795,
        "lon": -0.398708
      }
    },
    "SouthWimbledon": {
      "title": "South Wimbledon",
      "position": {
        "lat": 51.41543048,
        "lon": -0.192262754
      }
    },
    "SouthWoodford": {
      "title": "South Woodford",
      "position": {
        "lat": 51.59088,
        "lon": 0.02726
      }
    },
    "Southfields": {
      "title": "Southfields",
      "position": {
        "lat": 51.444941,
        "lon": -0.206466
      }
    },
    "SouthGate": {
      "title": "South Gate",
      "position": {
        "lat": 51.63240,
        "lon": 0.12765
      }
    },

    "Southwark": {
      "title": "Southwark",
      "position": {
        "lat": 51.50384,
        "lon": -0.10478
      }
    },
    "StJohnsWood": {
      "title": "St. Johns Wood",
      "position": {
        "lat": 51.53472,
        "lon": -0.17428
      }
    },
    "StPauls": {
      "title": "St. Paul's",
      "position": {
        "lat": 51.515285,
        "lon": -0.097598
      }
    },
    "StamfordBrook": {
      "title": "Stamford\n Brook",
      "position": {
        "lat": 51.494935,
        "lon": -0.246190
      }
    },
    "Stanmore": {
      "title": "Stanmore",
      "position": {
        "lat": 51.61895,
        "lon": -0.30241
      }
    },
    "StepneyGreen": {
      "title": "Stepney Green",
      "position": {
        "lat": 51.521884,
        "lon": -0.046546
      }
    },
    "Stockwell": {
      "title": "Stockwell",
      "position": {
        "lat": 51.47224,
        "lon": -0.12270
      }
    },
    "StonebridgePark": {
      "title": "Stonebridge Park",
      "position": {
        "lat": 51.54402388,
        "lon": -0.275978856
      }
    },
    "Stratford": {
      "title": "Stratford",
      "position": {
        "lat": 51.541208,
        "lon": -0.003776
      }
    },
    "SudburyHill": {
      "title": "SudburyHill",
      "position": {
        "lat": 51.556998,
        "lon": -0.335949
      }
    },
    "SudburyTown": {
      "title": "Sudbury Town",
      "position": {
        "lat": 51.55093,
        "lon": -0.31598
      }
    },
    "SwissCottage": {
      "title": "Swiss Cottage",
      "position": {
        "lat": 51.54333,
        "lon": -0.17436
      }
    },
    "Temple": {
      "title": "Temple",
      "position": {
        "lat": 51.51114,
        "lon": -0.11341
      }
    },
    "TheydonBois": {
      "title": "Theydon Bois",
      "position": {
        "lat": 51.67246,
        "lon": 0.10354
      }
    },
    "TootingBec": {
      "title": "Tooting Bec",
      "position": {
        "lat": 51.43578971,
        "lon": -0.159635693
      }
    },
    "TootingBroadway": {
      "title": "Tooting Broadway",
      "position": {
        "lat": 51.42780008,
        "lon": -0.167910811
      }
    },
    "TottenhamCourtRoad": {
      "title": "Tottenham\n Court Road",
      "position": {
        "lat": 51.51640,
        "lon": -0.13027
      }
    },
    "TottenhamHale": {
      "title": "Tottenham\n Hale",
      "position": {
        "lat": 51.588878,
        "lon": -0.059808
      }
    },
    "Totteridge&Whetstone": {
      "title": "Totteridge\n & Whetstone",
      "position": {
        "lat": 51.63022,
        "lon": -0.17917
      }
    },
    "TowerHill": {
      "title": "Tower\n Hill",
      "position": {
        "lat": 51.509910,
        "lon": -0.076813
      }
    },
    "TufnellPark": {
      "title": "Tufnell Park",
      "position": {
        "lat": 51.55663,
        "lon": -0.13813
      }
    },
    "TurnhamGreen": {
      "title": "Turnham\n Green",
      "position": {
        "lat": 51.495143,
        "lon": 0.254060
      }
    },
    "TurnpikeLane": {
      "title": "Turnpike Lane",
      "position": {
        "lat": 51.59031,
        "lon": 0.10308
      }
    },

    "Upminster": {
      "title": "Upminster",
      "position": {
        "lat": 51.55925,
        "lon": 0.25177
      }
    },
    "UpminsterBridge": {
      "title": "Upminster Bridge",
      "position": {
        "lat": 51.55847,
        "lon": 0.23509
      }
    },
    "Upney": {
      "title": "Upney",
      "position": {
        "lat": 51.55847,
        "lon": 0.23509
      }
    },
    "UptonPark": {
      "title": "UptonPark",
      "position": {
        "lat": 51.53514,
        "lon": 0.03373
      }
    },
    "Uxbridge": {
      "title": "Uxbridge",
      "position": {
        "lat": 51.54687,
        "lon": -0.47725
      }
    },
    "Vauxhall": {
      "title": "Vauxhall",
      "position": {
        "lat": 51.54687,
        "lon": -0.47725
      }
    },
    "Victoria": {
      "title": "Victoria",
      "position": {
        "lat": 51.54687,
        "lon": -0.47725
      }
    },
    "WalthamstowCentral": {
      "title": "Walthamstow \n Central",
      "position": {
        "lat": 51.58293,
        "lon": -0.01996
      }
    },
    "Wanstead": {
      "title": "Wanstead",
      "position": {
        "lat": 51.57565,
        "lon": 0.02864
      }
    },
    "WarrenStreet": {
      "title": "Warren Street",
      "position": {
        "lat": 51.52450,
        "lon": -0.13810
      }
    },
    "WarwickAvenue": {
      "title": "Warwick Avenue",
      "position": {
        "lat": 51.52329728,
        "lon": -0.183777837
      }
    },
    "Waterloo": {
      "title": "Waterloo",
      "position": {
        "lat": 51.50322,
        "lon": -0.11328
      }
    },
    "Watford": {
      "title": "Watford",
      "position": {
        "lat": 51.65741058,
        "lon": -0.41745306
      }
    },
    "WembleyCentral": {
      "title": "Wembley Central",
      "position": {
        "lat": 51.55122817,
        "lon": -0.29577538
      }
    },
    "WembleyPark": {
      "title": "Wembley Park",
      "position": {
        "lat": 51.56355598,
        "lon": -0.279770242
      }
    },
    "WestActon": {
      "title": "West\nActon",
      "position": {
        "lat": 51.51818,
        "lon": -0.28064
      }
    },
    "WestBrompton": {
      "title": "West Brompton",
      "position": {
        "lat": 51.48681,
        "lon": -0.19475
      }
    },
    "WestFinchley": {
      "title": "West Finchley",
      "position": {
        "lat": 51.60922281219,
        "lon": -0.188711152265457
      }
    },
    "WestHam": {
      "title": "West Ham",
      "position": {
        "lat": 51.527917,
        "lon": 0.004141
      }
    },
    "WestHampstead": {
      "title": "West Hampstead",
      "position": {
        "lat": 51.54678865,
        "lon": -0.191016868
      }
    },
    "WestHarrow": {
      "title": "West Harrow",
      "position": {
        "lat": 51.5795432,
        "lon": -0.353144584
      }
    },
    "WestKensington": {
      "title": "West\n Kensington",
      "position": {
        "lat": 51.490850,
        "lon": -0.205320
      }
    },
    "WestRuislip": {
      "title": "West Ruislip",
      "position": {
        "lat": 51.569324,
        "lon": -0.436740
      }
    },
    "WestbournePark": {
      "title": "WestbournePark",
      "position": {
        "lat": 51.520995,
        "lon": -0.201778
      }
    },
    "Westminster": {
      "title": "WestbournePark",
      "position": {
        "lat": 51.50121,
        "lon": -0.12489
      }
    },
    "WhiteCity": {
      "title": "White\nCity",
      "position": {
        "lat": 51.512206,
        "lon": -0.224226
      }
    },
    "WhiteChapel": {
      "title": "White Chapel",
      "position": {
        "lat": 51.51946,
        "lon": -0.05951
      }
    },
    "WillesdenGreen": {
      "title": "Willesden Green",
      "position": {
        "lat": 51.54919,
        "lon": -0.22106
      }
    },
    "WillesdenJunction": {
      "title": "Willesden Junction",
      "position": {
        "lat": 51.53181,
        "lon": -0.242350
      }
    },
    "Wimbledon": {
      "title": "Wimbledon",
      "position": {
        "lat": 	51.42200,
        "lon": -0.20544
      }
    },
    "WimbledonPark": {
      "title": "Wimbledon Park",
      "position": {
        "lat": 51.43391,
        "lon": -0.19864
      }
    },
    "WoodGreen": {
      "title": "Wimbledon Park",
      "position": {
        "lat": 51.59709,
        "lon": -0.10939
      }
    },
    "WoodLane": {
      "title": "Wimbledon Park",
      "position": {
        "lat": 51.59709,
        "lon": -0.10939
      }
    },
    "Woodford": {
      "title": "Woodford",
      "position": {
        "lat": 51.60582,
        "lon": 0.03328
      }
    },
    "WoodsidePark": {
      "title": "Woodside Park",
      "position": {
        "lat": 51.6181717295887,
        "lon": -0.185578887883903
      }
    }
  },
  "lines": [{
    "name": "Circle",
    "label": "Circle Line",
    "color": "#FFD300",
    "shiftCoords": [0,0],
    "nodes": [{
      "coords": [-45.46, -10.26],
      "name": "Hammersmith",
      "labelPos": "S"
    }, {
      "coords": [-45.46, -5.58],
      "marker": "interchange",
      "name": "GoldhawkRoad",
      "labelPos": "NW",
      "shiftCoords": [0, 0],
      "canonical": true
    }, {
      "coords": [-45.46, -2.72],
      "name": "ShepardsBushMarket",
      "labelPos": "W"
    },{
      "coords": [-45.46, 3.04],
      "name": "WoodLane",
      "labelPos": "S"
    },{
      "coords": [-45.46, 9.94],
      "name": "LatimerRoad",
      "labelPos": "S"
    },
    {
     "coords": [-44.32, 12.86],
     "name": "LadbrokeGrove",
     "labelPos": "NE"
    },
    {
     "coords": [-42.04, 14.74],
     "name": "WestbournePark",
     "labelPos": "NW"
    },
    {
     "coords": [-40.74, 16.6],
     "name": "RoyalOak",
     "labelPos": "NW"
    },{
      "coords": [-34, 17.6],
      "name": "Paddington",
      "labelPos": "S"
    },{
      "coords": [-27.84, 17.6],
      "name": "EdgwareRoad",
      "labelPos": "S"
    },{
      "coords": [-14.36, 17.6],
      "name": "BakerStreet",
      "labelPos": "S"
    },
    {
      "coords": [-7.34, 17.6],
      "name": "GreatPortlandStreet",
      "labelPos": "S"
    },{
      "coords": [3.56,  17.6],
      "name": "EustonSquare",
      "labelPos": "S"
    },{
      "coords": [9.22, 17.6],
      "name": "KingsCrossStPancras",
      "labelPos": "S",
      "hide": true
    },{
      "coords": [17.06, 12.08],
      "name": "Farringdon",
      "labelPos": "S"
    },
    {
      "coords": [20.9, 8.46],
      "name": "Barbican",
      "labelPos": "S"
    },
    {
      "coords": [24.42, 9.46],
      "name": "Moorgate",
      "labelPos": "S"
    },{
      "coords": [28.82, 9.46],
      "name": "LiverpoolStreet",
      "labelPos": "S"
    },
    {
     "coords": [33.88, 9.24]
    },
    {
     "coords": [34.98, 7.8]
    },


    {
      "coords": [34.98, 2.18],
      "name": "Aldgate",
      "labelPos": "S"
    },
    {
     "coords": [34.98, 1]
    },

    {
      "coords": [32.48, -1.42],
      "name": "TowerHill",
      "labelPos": "S"
    },{
      "coords": [24.86, -1.42],
      "name": "Monument",
      "labelPos": "S"
    },
    {
      "coords": [18.78, -1.42]
    },

    {
      "coords": [16.54, -2.16],
      "name": "CannonStreet",
      "labelPos": "S"
    },
    {
      "coords": [14.18, -4.24],
      "name": "MansionHouse",
      "labelPos": "NW"
    },
    {
      "coords": [12.06, -6.56],
      "name": "Blackfriars",
      "labelPos": "NW"
    },
    {
      "coords": [10.06, -10.34]
    },
    {
      "coords": [8.75, -10.34],
      "name": "Temple",
      "labelPos": "S",
      "hide": true
    },  {
        "coords": [0, -10.34],
        "name": "Embankment",
        "labelPos": "S",
        "hide": true
      },
      {
        "coords": [-4.98, -10.34],
        "name": "Westminster",
        "labelPos": "S"
      },
      {
        "coords": [-11.38, -10.34],
        "name": "StJamessPark",
        "labelPos": "S"
      },
      {
        "coords": [-14.46, -10.34],
        "name": "Victoria",
        "labelPos": "S"
      },
      {
        "coords": [-20.76, -10.34],
        "name": "SloaneSquare",
        "labelPos": "S",
        "hide": true
      },
      {
        "coords": [-26.34, -10.34],
        "name": "SouthKensington",
        "labelPos": "S"
      },
      {
        "coords": [-29.28, -10.34],
        "name": "GloucsterRoad",
        "labelPos": "N"
      },
      {
        "coords": [-32.26, -10.34]
      },
      {
        "coords": [-32.58, 0.02],
        "name": "HighStreetKensingtion",
        "labelPos": "S"
      },
      {
        "coords": [-32.58, 5.06],
        "name": "NottingHillGate",
        "labelPos": "S",
        "hide": true
      },
      {
        "coords": [-32.58, 10],
        "name": "Bayswater",
        "labelPos": "S"
      },
      {
        "coords": [-32.58, 14.62]
      },
      {
        "coords": [-32.36, 15.52]
      },
      {
        "coords": [-27.86, 15.96],
        "name": "EdgwareRoad",
        "labelPos": "S"
      }]
  }, {
    "name": "Bakerloo",
    "label": "Bakerloo",
    "color": "#B36305",
    "shiftCoords": [0, 0],
    "nodes": [{
      "coords": [-46.42, 51.7],
      "name": "Harrow&Wealdstone",
      "labelPos": "W"
    }, {
      "coords": [-46.42, 48.98],
      "name": "Kenton",
      "labelPos": "W"
    },
    {
      "coords": [-46.42, 42.74],
      "name": "SouthKenton",
      "labelPos": "W"
    },
    {
      "coords": [-46.42, 40.36],
      "name": "NorthWembley",
      "labelPos": "W"
    },
    {
      "coords": [-46.42, 38.08],
      "name": "WembleyCentral",
      "labelPos": "W"
    },
    {
      "coords": [-46.42, 35.82],
      "name": "StonebridgePark",
      "labelPos": "W"
    },
    {
      "coords": [-46.42, 33.66],
      "name": "Harlesden",
      "labelPos": "W"
    },
    {
      "coords": [-46.42, 30.48],
      "name": "WillesdenJunction",
      "labelPos": "W"
    },
    {
      "coords": [-46.42, 28.32],
      "name": "KensalGreen",
      "labelPos": "W"
    },
    {
      "coords": [-46.42, 26.06],
      "name": "QueensPark",
      "labelPos": "W"
    },
    {
      "coords": [-46, 24.36],
      "dir": "S"
    },
    {
      "coords": [-44.94, 23.1],
      "name": "KilburnPark",
      "labelPos": "N"
    },
    {
      "coords": [-43.48, 21.52],
      "name": "MaidaVale",
      "labelPos": "N",
      "dir": "S"
    },
    {
      "coords": [-42.34, 20.38],
      "name": "WarwickAvenue",
      "labelPos": "N",
      "dir": "S"
    },
    {
      "coords": [-40.74, 20.38]
    },
    {
      "coords": [-35.64, 20.38],
      "name": "Paddington",
      "labelPos": "N"
    },
    {
      "coords": [-26.62, 20.38],
      "name": "EdgwareRoad",
      "labelPos": "N",
      "hide": true
    },
    {
      "coords": [-23.16, 20.38],
      "name": "Marylebone",
      "labelPos": "N"
    },
    {
      "coords": [-20.88, 20.38]
    },
    {
      "coords": [-16.6, 14.6],
      "name": "BakerStreet",
      "labelPos": "N"
    },
    {
      "coords": [-12.82, 10.86],
      "name": "RegentsPark",
      "labelPos": "N"
    },
    {
      "coords": [-9.98, 8.02]
    },
    {
      "coords": [-9.78, 4.82],
      "name": "OxfordCircus",
      "labelPos": "N",
      "hide": true
    },
    {
      "coords": [-9.98, 3.24]
    },
    {
      "coords": [-5.44, -3.9],
      "name": "PiccadillyCircus",
      "labelPos": "N",
      "hide": true
    },
    {
      "coords": [0, -6.62],
      "name": "CharingCross",
      "labelPos": "N"
    },
    {
      "coords": [1.36, -8.22]
    },
    {
      "coords": [1.36, -12.76],
      "name": "Embankment",
      "labelPos": "N"
    },
    {
      "coords": [1.36, -17.06],
      "name": "Waterloo",
      "labelPos": "N"
    },
    {
      "coords": [1.36, -26],
      "name": "LambethNorth",
      "labelPos": "N"
    },
    {
      "coords": [1.36, -28.64]
    },
    {
      "coords": [3.76, -31.14],
      "name": "Elephant&Castle",
      "labelPos": "SE",
      "hide": true
    },
    {
      "coords": [3.76, -31.14]
    }]
  }, {
    "name": "Victoria",
    "label": "Victoria",
    "color": "#0098d4",
    "shiftCoords": [0, 0],
    "nodes": [{
      "coords": [57.82, 42.06],
      "marker": "interchange",
      "name": "WalthamstowCentral",
      "labelPos": "S",
      "canonical": true
    }, {
      "coords": [50.36, 42.06],
      "name": "BlackhorseRoad",
      "labelPos": "N"
    },
    {
      "coords": [45.14, 42.06],
      "name": "TottenhamHale",
      "labelPos": "S"
    },
    {
      "coords": [39.72, 42.06],
      "name": "SevenSisters",
      "labelPos": "N"
    },
    {
      "coords": [36.96, 42.06]
    },
    {
      "coords": [33.48, 38.68],
      "name": "FinsburyPark",
      "labelPos": "NW"
    },
    {
      "coords": [28.06, 32.96]
    },
    {
      "coords": [27.86, 27.54],
      "name": "Highbury&Islington",
      "labelPos": "E"
    },
    {
      "coords": [27.96, 23.96]
    },
    {
      "coords": [24.88, 20.78]
    },
    {
      "coords": [9.44, 20.78],
      "name": "KingsCrossStPancras",
      "labelPos": "S",
      "hide": true
    },

    {
      "coords": [4.74, 19.66],
      "name": "Euston",
      "labelPos": "S"
    },
    {
      "coords": [0.04, 14.74],
      "name": "WarrenStreet",
      "labelPos": "S"
    },
    {
      "coords": [-9.78, 4.82],
      "name": "OxfordCircus",
      "labelPos": "S",
      "marker": "interchange"
    },
    {
      "coords": [-14.48, 0.02]
    },
    {
      "coords": [-14.46, -1.42],
      "name": "GreenPark",
      "labelPos": "NE"
    },
    {
      "coords": [-14.46, -11.34],
      "name": "Victoria",
      "labelPos": "NW"
    },
    {
      "coords": [-14.46, -24.32],
      "name": "Pimlico",
      "labelPos": "W"
    },
    {
      "coords": [-14.48, -29.14]
    },
    {
      "coords": [-9.78, -34.04],
      "name": "Vauxhall",
      "labelPos": "NE"
    },
    {
      "coords": [-4.16, -39],
      "name": "Stockwell",
      "labelPos": "S"
    },
    {
      "coords": [-0.6, -46],
      "name": "Brixton",
      "labelPos": "SE"
    },
    {
      "coords": [-0.6, -46]
    }]
  }, {
  "name": "Northern(viaMillHillEast)",
  "label": "Northern",
  "color": "#a0a5a9",
  "shiftCoords": [0, 0],
  "nodes": [ {
    "coords": [42, -6],
    "name": "MillHillEast",
    "labelPos": "NW"
  },
  {
    "coords": [42, -6],
    "name": "FinchleyCentral",
    "labelPos": "NW"
  }]
  }, {
    "name": "Northern(viaHighBarnet)",
    "label": "Northern",
    "color": "#000000",
    "shiftCoords": [0, 0],
    "nodes": [ {
      "coords": [9.46, 65.06],
      "name": "HighBarnet",
      "labelPos": "W"
    },
    {
      "coords": [9.46, 61.98],
      "name": "Totteridge&Whetstone",
      "labelPos": "W"
    },
    {
      "coords": [9.46, 59.34],
      "name": "WoodsidePark",
      "labelPos": "W"
    },
    {
      "coords": [9.46, 56.58],
      "name": "WestFinchley",
      "labelPos": "W"
    },
    {
      "coords": [9.46, 53.28],
      "name": "FinchleyCentral",
      "labelPos": "SW"
    },
    {
      "coords": [9.46, 50.64],
      "name": "EastFinchley",
      "labelPos": "W"
    },
    {
      "coords": [9.46, 47.88],
      "name": "Highgate",
      "labelPos": "W"
    },
    {
      "coords": [9.46, 45.24],
      "name": "Archway",
      "labelPos": "W"
    },
    {
      "coords": [9.46, 42.6],
      "name": "TufnellPark",
      "labelPos": "W"
    },
    {
      "coords": [9.46, 38.2],
      "name": "KentishTown",
      "labelPos": "W"
    },
    {
     "coords": [9.46, 36.98]
    },
    {
     "coords": [3.52, 30.6]
    },
    {
      "coords": [3.52, 28.84],
      "name": "CamdenTown",
      "labelPos": "S",
      "hide": true
    },
    {
     "coords": [4.28, 26.86]
    },
    {
      "coords": [4.28, 19.7],
      "name": "Euston",
      "labelPos": "S"
    },
    {
     "coords": [5.6, 18.6]
    },
    {
      "coords": [9.44, 18.6],
      "name": "KingsCrossStPancras",
      "labelPos": "N",
      "hide": true
    },


    {
      "coords": [18.16, 18.6],
      "name": "Angel",
      "labelPos": "S"
    },

    {
      "coords": [22.66, 18.6]
    },

     {
      "coords": [22.66, 16.5],
      "name": "OldStreet",
      "labelPos": "E"
    },
    {
      "coords": [22.66, 7.14],
      "name": "Moorgate",
      "labelPos": "NW"
    }, {
      "coords": [22.66, 7.46],
      "name": "Bank",
      "labelPos": "S"
    }, {
      "coords": [22.66, -12.18],
      "name": "LondonBridge",
      "labelPos": "SE",
      "marker": "interchange"
    }, {
      "coords": [10.12, -24.78],
      "name": "Borough",
      "labelPos": "S"
    }, {
      "coords": [3.74, -31.18],
      "name": "Elephant&Castle",
      "labelPos": "SE"
    }, {
      "coords": [-0.88, -35.8],
      "name": "Kennington",
      "labelPos": "S",
      "hide": true
    }, {
      "coords": [-2.32, -37.34],
      "name": "Oval",
      "labelPos": "N"
    }, {
      "coords": [-4.16, -39],
      "name": "Stockwell",
      "labelPos": "S",
      "hide": true
    }, {
      "coords": [-7.82, -42.74],
      "name": "ClaphamNorth",
      "labelPos": "NW"
    },
    {
      "coords": [-9.92, -44.94],
      "name": "ClaphamCommon",
      "labelPos": "NW"
    },
    {
      "coords": [-12.44, -47.24],
      "name": "ClaphamSouth",
      "labelPos": "NW"
    },
    {
      "coords": [-14.76, -49.46],
      "name": "Balham",
      "labelPos": "NW"
    },
    {
      "coords": [-17.4, -52.32],
      "name": "TootingBec",
      "labelPos": "NW"
    },
    {
      "coords": [-19.92, -54.74],
      "name": "TootingBroadway",
      "labelPos": "NW"
    },
    {
      "coords": [-22.34, -57.16],
      "name": "ColliersWood",
      "labelPos": "NW"
    },
    {
      "coords": [-24.88, -59.7],
      "name": "SouthWimbledon",
      "labelPos": "NW"
    },
    {
      "coords": [-29.06, -63.88],
      "name": "Morden",
      "labelPos": "NW"
    }]
  },
{

  "name": "Northern(viaEdgware)",
  "label": "Northern",
  "color": "#000000",
  "shiftCoords": [0, 0],
  "nodes": [{
    "coords": [-21.9, 55.7],
    "name": "Edgware",
    "labelPos": "NE",
    "canonical": true
  },
  {
   "coords": [-19.6, 53.38],
   "name": "BurntOak",
   "labelPos": "SW"
  },

  {
    "coords": [-17.06, 50.96],
    "name": "Colindale",
    "labelPos": "SW"
  },
  {
   "coords": [-14.76, 48.66],
   "name": "HendonCentral",
   "labelPos": "SW"
 },
 {
  "coords": [-12, 45.9],
  "name": "BrentCross",
  "labelPos": "SW"
},
{
 "coords": [-9.48, 43.26],
 "name": "GoldersGreen",
 "labelPos": "SW"
},
{
 "coords": [-7.06, 40.84],
 "name": "Hampstead",
 "labelPos": "SW"
},
{
 "coords": [-1.54, 35.44],
 "name": "BelsizePark",
 "labelPos": "SW"
},
{
 "coords": [-0.98, 32.9],
 "name": "ChalkFarm",
 "labelPos": "SW"
},
{
 "coords": [3.18, 30.7]
},
{
 "coords": [3.52, 28.84],
 "name": "CamdenTown",
 "labelPos": "W"
},
{
 "coords": [2.74, 26.86]
},
{
 "coords": [2.42, 25.2],
 "name": "MorningtonCrescent",
 "labelPos": "S"
},
{
 "coords": [2.42, 19.7],
 "name": "Euston",
 "labelPos": "S"
},
{
 "coords": [0, 16.72]
},
{
 "coords": [0, 14.84],
 "name": "WarrenStreet",
 "labelPos": "S"
},
{
 "coords": [0, 8.36],
 "name": "GoodgeStreet",
 "labelPos": "S"
},
{
 "coords": [0, 5.16],
 "name": "TottenhamCourtRoad",
 "labelPos": "N",
 "dir": "n"
},
{
 "coords": [0, 0],
 "name": "LeicesterSquare",
 "labelPos": "S"
},
{
 "coords": [0, -6.62],
 "name": "CharingCross",
 "labelPos": "S"
},
{
 "coords": [0, -11.14],
 "name": "Embankment",
 "labelPos": "S"
},
{
 "coords": [0, -16.98],
 "name": "Waterloo",
 "labelPos": "S"
},
{
 "coords": [0, -34.7]
},
{
 "coords": [-0.88, -35.8],
 "name": "Kennington",
 "labelPos": "S"
}]

},

  {
    "name": "District(viaEaling)",
    "label": "District",
    "color": "#00782a",
    "shiftCoords": [0,-1],
    "nodes": [{
      "coords": [-72.48, 4.82],
      "name": "EalingBroadway",
      "labelPos": "W",
      "marker": "interchange"
    },
    {
      "coords": [-69.5, 4.82]
    },

    {
      "coords": [-69.5, 2.24],
      "name": "EalingCommon",
      "shiftCoords": [0,0],
      "labelPos": "W",
      "hide": true
    },
    {
      "coords": [-69.5, -8.16]
    },
    {
      "coords": [-67.68, -10],
      "name": "ActonTown",
      "labelPos": "NE",
      "hide": true
    }, {
      "coords": [-65.26, -11.34],
      "name": "ChiswickPark",
      "labelPos": "S"
    },
    {
      "coords": [-60.5, -11.34],
      "name": "TurnhamGreen",
      "labelPos": "S"
    },
    {
      "coords": [-55.4, -11.34],
      "name": "StamfordBrook",
      "labelPos": "S"
    },
    {
      "coords": [-49.48, -11.34],
      "name": "RavenscourtPark",
      "labelPos": "S"
    },
    {
      "coords": [-42.72, -11.34],
      "name": "Hammersmith",
      "labelPos": "W"
    },
    {
      "coords": [-42.46, -11.34],
      "name": "BaronsCourt",
      "labelPos": "W"
    },
    {
      "coords": [-38.82, -11.34],
      "name": "WestKensington",
      "labelPos": "W"
    },
    {
      "coords": [-34.74, -11.34],
      "name": "EarlsCourt",
      "labelPos": "W"
    },
    {
      "coords": [-29.28, -11.34],
      "name": "GloucsterRoad",
      "labelPos": "W"
    },
    {
      "coords": [-26.34, -11.34],
      "name": "SouthKensington",
      "labelPos": "W"
    },
    {
      "coords": [-20.76, -11.34],
      "name": "SloaneSquare",
      "labelPos": "W"
    },
    {
      "coords": [-14.7, -11.34],
      "name": "Victoria",
      "labelPos": "W"
    },
    {
      "coords": [-11.38, -11.34],
      "name": "StJamessPark",
      "labelPos": "W"
    },
    {
      "coords": [-4.98, -11.34],
      "name": "Westminster",
      "labelPos": "W"
    },
    {
      "coords": [-0.34,-11.34]
    },
    {
      "coords": [6.48, -11.34],
      "name": "Temple",
      "labelPos": "W"
    },
    {
      "coords": [10.34, -11.34]
    },
    {
      "coords": [13.4, -8],
      "name": "Blackfriars",
      "labelPos": "NW"
    },
    {
      "coords": [15.1, -5.26],
      "name": "MansionHouse",
      "labelPos": "W"
    },
    {
      "coords": [17.6, -3.44],
      "name": "CannonStreet",
      "labelPos": "W"
    },
    {
      "coords": [18.74, -2.42]
    },
    {
      "coords": [24.86, -2.42],
      "name": "Monument",
      "labelPos": "W"
    },
    {
      "coords": [34.6, -2.42]
    },
    {
      "coords": [32.48, -2.42],
      "name": "TowerHill",
      "labelPos": "W"
    },
    {
      "coords": [40.28, 2.52],
      "name": "AldgateEast",
      "labelPos": "W"
    },
    {
      "coords": [42.26, 4.84],
      "name": "WhiteChapel",
      "labelPos": "W"
    },
    {
      "coords": [46.54, 8.58],
      "name": "StepneyGreen",
      "labelPos": "W"
    },
    {
      "coords": [51.6, 11.22],
      "name": "MileEnd",
      "labelPos": "W"
    },
    {
      "coords": [59.64, 11.22],
      "name": "BowRoad",
      "labelPos": "W"
    },
    {
      "coords": [66.36, 11.22],
      "name": "Bromley-by-Bow",
      "labelPos": "W"
    },
    {
      "coords": [71.64, 11.22],
      "name": "WestHam",
      "labelPos": "W"
    },
    {
      "coords": [74.6, 11.22]
    },
    {
      "coords": [76.7, 13.08],
      "name": "Plaistow",
      "labelPos": "W"
    },
    {
      "coords": [81.44, 17.94],
      "name": "EastHam",
      "labelPos": "W"
    },
    {
      "coords": [84.08, 20.46],
      "name": "Barking",
      "labelPos": "W"
    },
    {
      "coords": [86.6, 23],
      "name": "Upney",
      "labelPos": "SE"
    },
    {
      "coords": [88.8, 24.98],
      "name": "Becontree",
      "labelPos": "SE"
    },
    {
      "coords": [91.22, 27.79],
      "name": "DagenhamHeathway",
      "labelPos": "SE"
    },
    {
      "coords": [95.2, 29.72],
      "name": "DagenhamEast",
      "labelPos": "SE"
    },
    {
      "coords": [95.74, 32.36],
      "name": "ElmPark",
      "labelPos": "SE"
    },
    {
      "coords": [98.06, 34.6],
      "name": "Hornchurch",
      "labelPos": "SE"
    },
    {
      "coords": [100.48, 36.98],
      "name": "UpminsterBridge",
      "labelPos": "SE"
    },
    {
      "coords": [102.9, 39.18],
      "name": "Upminster",
      "labelPos": "SE"
    }]
  },{
    "name": "District(viaWimbledon)",
    "label": "District",
    "color": "#00782a",
    "shiftCoords": [0, 0],
    "nodes": [{
      "coords": [-27.8, 15.4],
      "name": "EdgwareRoad",
      "labelPos": "SE",
      "hide":true,
      "marker": "interchange"
    },
    {
      "coords": [-31.98, 16.6]
    },
    {
      "coords": [-32.48, 15.12]
    },
    {
      "coords": [-32.48, 10.04],
      "name": "Bayswater",
      "labelPos": "SE"
    },
    {
      "coords": [-32.48, 4.82],
      "name": "NottingHillGate",
      "labelPos": "SE",
      "hide": true
    },
    {
      "coords": [-32.48, 0.24],
      "name": "HighStreetKensingtion",
      "labelPos": "SE"
    },
    {
      "coords": [-32.48, -11.34],
      "name": "EarlsCourt",
      "labelPos": "SE"
    },
    {
      "coords": [-37, -12.44],
      "name": "WestBrompton",
      "labelPos": "SE"
    },
    {
      "coords": [-37.06, -17.1],
      "name": "WestBrompton",
      "labelPos": "SE"
    },
    {
      "coords": [-37.06, -24.14],
      "name": "FulhamBroadway",
      "labelPos": "SE"
    },
    {
      "coords": [-37.06, -26.19],
      "name": "ParsonsGreen",
      "labelPos": "SE"
    },
    {
      "coords": [-37.06, -29.48],
      "name": "PutneyBridge",
      "labelPos": "SE"
    },
    {
      "coords": [-37.06, -35.24],
      "name": "EastPutney",
      "labelPos": "SE"
    },
    {
      "coords": [-37.06, -39.04],
      "name": "Southfields",
      "labelPos": "SE"
    },
    {
      "coords": [-37.06, -44.18],
      "name": "WimbledonPark",
      "labelPos": "SE"
    },
    {
      "coords": [-37.06, -48.72],
      "name": "Wimbledon",
      "labelPos": "SE"
    },


    {
      "coords": [39, 2]
    }



  ]
    },{
      "name": "Central(ViaEalingB)",
      "label": "Central",
      "color": "#E32017",
      "shiftCoords": [0, 0],
      "nodes": [{
        "coords": [-72.48, 4.82],
        "name": "EalingBroadway",
        "labelPos": "S"
      },
      {
        "coords": [-63.38, 4.82],
        "name": "WestActon",
        "labelPos": "S"
      },

      {
        "coords": [-56.62, 4.82],
        "name": "NorthActon",
        "labelPos": "S"
      },

      {
        "coords": [-52.24, 4.82],
        "name": "EastActon",
        "labelPos": "S"
      },
      {
        "coords": [-48.24, 4.82],
        "name": "WhiteCity",
        "labelPos": "S"
      },
      {
        "coords": [-40.46, 4.82],
        "name": "ShepardsBush",
        "labelPos": "N"
      },  {
          "coords": [-36.78, 4.82],
          "name": "HollandPark",
          "labelPos": "S"
        },
        {
           "coords": [-32.48, 4.82],
           "name": "NottingHillGate",
           "labelPos": "SW"
         },
         {
            "coords": [-26.86, 4.82],
            "name": "Queensway",
            "labelPos": "N"
          },
          {
             "coords": [-23.88, 4.82],
             "name": "LancasterGate",
             "labelPos": "S"
           },
           {
              "coords": [-21.34, 4.82],
              "name": "MarbleArch",
              "labelPos": "N"
            },
            {
               "coords": [-16.32, 4.82],
               "name": "BondStreet",
               "labelPos": "SW"
             },
             {
                "coords": [-9.78, 4.82],
                "name": "OxfordCircus",
                "labelPos": "S",
                "hide": true
              },
              {
                 "coords": [-0.06, 4.82],
                 "name": "TottenhamCourtRoad",
                 "labelPos": "NE"
               },
               {
                  "coords": [5.04, 4.82],
                  "name": "Holborn",
                  "labelPos": "SE"
                },
                {
                   "coords": [12.72, 4.82],
                   "name": "ChanceryLane",
                   "labelPos": "W"
                 },

                 {
                    "coords": [15.28, 3.7],
                    "name": "StPauls",
                    "labelPos": "W",
                    "dir": "S"
                  },
                  {
                     "coords": [17.72, 1.24]
                   },
                  {
                     "coords": [21.1, 1.24],
                     "name": "Bank",
                     "labelPos": "W"
                   },
                   {
                      "coords": [30.72, 7.28],
                      "name": "LiverpoolStreet",
                      "labelPos": "W"
                    },
                    {
                       "coords": [36.86, 13.72]
                     },
                    {
                       "coords": [45.96, 13.72],
                       "name": "BethnalGreen",
                       "labelPos": "N"
                     },
                     {
                        "coords": [52, 13.72],
                        "name": "MileEnd",
                        "labelPos": "W"
                      },
                      {
                         "coords": [56.7, 13.72]
                       },
                      {
                         "coords": [64.16, 20.98],
                         "name": "Stratford",
                         "labelPos": "W",
                         "marker": "interchange"
                      },
                      {
                         "coords": [65.28, 22.52]
                       },
                      {
                         "coords": [65.28, 28.96],
                         "name": "Leyton",
                         "labelPos": "W"
                      },
                      {
                         "coords": [65.28, 36.32],
                         "name": "LeytonStone",
                         "labelPos": "W"
                      },
                      {
                         "coords": [65.28, 44.62],
                         "name": "Snaresbrook",
                         "labelPos": "W"
                      },
                      {
                         "coords": [65.28, 47.38],
                         "name": "SouthWoodford",
                         "labelPos": "W"
                       },
                       {
                          "coords": [65.28, 49.94],
                          "name": "Woodford",
                          "labelPos": "W"
                        },
                        {
                           "coords": [65.28, 57.2],
                           "name": "BuckhurstHill",
                           "labelPos": "W"
                        },
                        {
                           "coords": [65.28, 59.96],
                           "name": "Loughton",
                           "labelPos": "W"
                        },
                        {
                           "coords": [65.28, 62.62],
                           "name": "Debden",
                           "labelPos": "W"
                        },
                        {
                           "coords": [65.28, 65.38],
                           "name": "TheydonBois",
                           "labelPos": "W"
                        },
                        {
                           "coords": [65.28, 68.04],
                           "name": "Epping",
                           "labelPos": "W"
                        }]
    },
    {
      "name": "Central(viaWestRuislip)",
      "label": "Central",
      "color": "#E32017",
      "shiftCoords": [0, 0],
      "nodes": [  {
          "coords": [-80.36, 55.14],
          "name": "WestRuislip",
          "labelPos": "W"
        },   {
            "coords": [-80.36, 43.08],
            "name": "RuislipGardens",
            "labelPos": "W"
          },
          {
            "coords": [-80.36, 38.78],
            "name": "SouthRuislip",
            "labelPos": "W",
            "marker" : "interchange"
          },
          {
            "coords": [-80.36, 34.48],
            "name": "Northholt",
            "labelPos": "W"
          },
          {
            "coords": [-80.36, 30.08],
            "name": "Greenford",
            "labelPos": "W",
            "marker": "interchange"
          },
          {
            "coords": [-80.36, 25.68]
          },
          {
            "coords": [-77.7, 22.72],
            "name": "Perivale",
            "labelPos": "SW"
          },
          {
            "coords": [-72.78, 18.02],
            "name": "HangerLane",
            "labelPos": "SW"
          },
          {
            "coords": [-70.2, 10]
          },
          {
            "coords": [-60.2, 5.54]
          },
          {
            "coords": [-56.62, 4.82],
            "name": "NorthActon",
            "labelPos": "S",
            "hide": true
          },
            {
            "coords": [-56.62, 4.82]
          }


        ]
      },

      {
        "name": "Central(viaRodingValley)",
        "label": "Central",
        "color": "#E32017",
        "shiftCoords": [0, 0],
        "nodes": [  {
            "coords": [65.28, 49.94],
            "name": "Woodford",
            "labelPos": "SE",
            "hide": true
          },    {
              "coords": [65.48, 54.8]
            },
            {
              "coords": [68.12, 54.82],
              "name": "RodingValley",
              "labelPos": "N"
            },
            {
              "coords": [71.42, 54.82],
              "name": "Chigwell",
              "labelPos": "S"
            },
            {
              "coords": [74.5, 54.82],
              "name": "GrangeHill",
              "labelPos": "N"
            },
            {
               "coords": [77.14, 54.82]
             },
            {
              "coords": [77.14, 51.74],
              "name": "Hainault",
              "labelPos": "E"
            },
            {
              "coords": [77.14, 49.2],
              "name": "Fairlop",
              "labelPos": "E"
            },
            {
              "coords": [77.14, 46.44],
              "name": "Barkingside",
              "labelPos": "E"
            },
            {
              "coords": [77.14, 43.26],
              "name": "NewburyPark",
              "labelPos": "E"
            },
            {
              "coords": [77.14, 40]
            },
            {
              "coords": [74.28, 40],
              "name": "GantsHill",
              "labelPos": "S"
            },
            {
              "coords": [71.64, 40],
              "name": "Redbridge",
              "labelPos": "N"
            },
            {
              "coords": [68.34, 40],
              "name": "Wanstead",
              "labelPos": "S"
            },
            {
              "coords": [65.30, 40]
            },
            {
              "coords": [65.28, 36.32],
              "name": "LeytonStone",
              "labelPos": "SE"
            }
          ]
        },
    {
      "name": "District(viaRichmond)",
      "label": "District",
      "color": "#00782a",
      "shiftCoords": [0, 0],
      "nodes": [  {
          "coords": [88, 38]
        },   {
            "coords": [88, 38],
            "name": "Gunnersbury",
            "labelPos": "SE"
          },
          {
            "coords": [88, 38],
            "name": "KewGardens",
            "labelPos": "SE"
          },
          {
            "coords": [88, 38],
            "name": "Richmond",
            "labelPos": "SE"
          }]
      },
     {
    "name": "Metropolitan(viaUxbridge)",
    "label": "Metropolitan",
    "color": "#9B0056",
    "shiftCoords": [0, 0],
    "nodes": [{
        "coords": [-98.5, 50.32],
        "name": "Uxbridge",
        "labelPos": "N",
        "hide": true
      },   {
          "coords": [-91.46, 50.32],
          "name": "Hillingdon",
          "labelPos": "N"
        },
        {
          "coords": [-85.74, 50.32],
          "name": "Ickenham",
          "labelPos": "S",
          "hide": true
        },
        {
          "coords": [-77.38, 50.32],
          "name": "Ruislip",
          "labelPos": "SE"
        },
        {
          "coords": [-73.74, 49.44],
          "name": "RuislipManor",
          "labelPos": "NE"
        },
        {
          "coords": [-71.88, 47.56],
          "name": "Eastcote",
          "labelPos": "NE"
        },
        {
          "coords": [-71.02, 45.12],
          "name": "RaynersLane",
          "labelPos": "SW"
        },{
      "coords": [-63.8, 45.6],
      "name": "WestHarrow",
      "labelPos": "SW"
    }, {
      "coords": [-56.06, 45.6],
      "name": "Harrow-on-the-Hill",
      "labelPos": "N",
      "hide": true
    },
    {
      "coords": [-49.98, 44.8],
      "name": "NorthwickPark",
      "labelPos": "SW"
    },
    {
      "coords": [-42.82, 44.8],
      "name": "PrestonRoad",
      "labelPos": "SW"
    },
    {
      "coords": [-41.94, 44.46],
      "name": "PrestonRoad",
      "labelPos": "SW"
    },
    {
      "coords": [-37.42, 40.28],
      "name": "WembleyPark",
      "labelPos": "SW"
    },
    {
      "coords": [-23.66, 26.86],
      "name": "FinchleyRoad",
      "labelPos": "SW"
    },
    {
      "coords": [-14.2, 17.06],
      "name": "BakerStreet",
      "labelPos": "SW"
    },
    {
      "coords": [-13.32, 16.62]
    },
    {
      "coords": [-7.34, 16.6],
      "name": "GreatPortlandStreet",
      "labelPos": "SW"
    },
    {
      "coords": [3.52, 16.6],
      "name": "EustonSquare",
      "labelPos": "SW"
    },
    {
      "coords": [58, 16.6],
      "name": "Farringdon",
      "labelPos": "SW"
    },
    {
      "coords": [9.22, 16.6]
    },
    {
      "coords": [12.54, 16.6]
    },
    {
      "coords": [16.78, 12.9],
      "name": "Barbican",
      "labelPos": "SW"
    },
    {
      "coords": [58, -22],
      "name": "Moorgate",
      "labelPos": "SW"
    },
    {
      "coords": [58, -22],
      "name": "LiverpoolStreet",
      "labelPos": "SW"
    },
    {
      "coords": [58, -22],
      "name": "Aldgate",
      "labelPos": "SW"
    }]
  },{
 "name": "Metropolitan(viaAmersham)",
 "label": "Metropolitan",
 "color": "#9B0056",
 "shiftCoords": [0, 0],
 "nodes": [{
   "coords": [-98.46, 65.4],
   "name": "Amersham",
   "labelPos": "S"
 },
 {
   "coords": [-84.54, 65.4],
   "name": "Chalfont&Latimer",
   "labelPos": "N"
 },
 {
   "coords": [-79, 65.4]
 },
 {
   "coords": [-77.12, 63.82],
   "name": "Chorleywood",
   "labelPos": "SW"
 },
 {
   "coords": [-74.6, 61.36],
   "name": "Rickmansworth",
   "labelPos": "SW"
 },
 {
   "coords": [-72.04, 58.74],
   "name": "MoorPark",
   "labelPos": "NE"
 },
 {
   "coords": [-69.72, 56.28],
   "name": "Northwood",
   "labelPos": "NE"
 },
 {
   "coords": [-67.1, 53.96],
   "name": "NorthwoodHills",
   "labelPos": "NE"
 },
 {
   "coords": [-64.64, 51.34],
   "name": "Pinner",
   "labelPos": "NE"
 },
 {
   "coords": [-62.3, 49.02],
   "name": "NorthHarrow",
   "labelPos": "NE"
 }, {
    "coords": [-59.7, 45.7]
  },
 {
   "coords": [-56.06, 45.6],
   "name": "Harrow-on-the-Hill",
   "labelPos": "N",
   "marker": "interchange"
 }
]
 },
 {
"name": "Metropolitan(viaChesham)",
"label": "Metropolitan",
"color": "#a0a5a9",
"shiftCoords": [0, 0],
"nodes": [ {
  "coords": [42, -6],
  "name": "Chesham",
  "labelPos": "NW"
},{
  "coords": [42, -6],
  "name": "Chalfont&Latimer",
  "labelPos": "NW"
}

]
},
{
"name": "Metropolitan(viaWatford)",
"label": "Metropolitan",
"color": "#9B0056",
"shiftCoords": [0, 0],
"nodes": [ {
 "coords": [-73.2, 65.4],
 "name": "Watford",
 "labelPos": "E"
},{
 "coords": [-73.2, 62.52],
 "name": "Croxley",
 "labelPos": "E"
},
{
  "coords": [-73.2, 60.92]
},
{
 "coords": [-72.04, 58.74],
 "name": "MoorPark",
 "labelPos": "NE"
}


]
},
{
"name": "Jubilee",
"label": "Jubilee",
"color": "#a0a5a9",
"shiftCoords": [0, 0],
"nodes": [ {
 "coords": [-37.46, 52.16],
 "name": "Stanmore",
 "labelPos": "E"
},{
 "coords": [-37.46, 49.66],
 "name": "CanonsPark",
 "labelPos": "E"
},
{
 "coords": [-37.46, 46.94],
 "name": "Queensbury",
 "labelPos": "E"
},
{
 "coords": [-37.46,  44.22],
 "name": "Kingsbury",
 "labelPos": "E"
},
{
 "coords": [-37.46,  42.86]
},
{
 "coords": [-34.5, 40.02 ],
 "name": "Neasden",
 "labelPos": "NE"
},
{
 "coords": [-32.12, 37.64],
 "name": "DollisHill",
 "labelPos": "NE"
},
{
 "coords": [-29.86, 35.36],
 "name": "WillesdenGreen",
 "labelPos": "NE"
},
{
 "coords": [-27.36, 33],
 "name": "Kilburn",
 "labelPos": "NE"
},
{
 "coords": [-24.96, 30.48],
 "name": "WestHampstead",
 "labelPos": "NE"
},
{
 "coords": [-22.48, 28],
 "name": "FinchleyRoad",
 "labelPos": "NE"
},
{
 "coords": [-20.54, 26.28],
 "name": "SwissCottage",
 "labelPos": "NE"
},
{
 "coords": [-18.62, 24.36],
 "name": "StJohnsWood",
 "labelPos": "NE"
},
{
 "coords": [-16,  21.86]
},
{
 "coords": [-16, 14.6],
 "name": "BakerStreet",
 "labelPos": "NE",
 "marker": "interchange",
 "hide" : true
},
{
 "coords": [-16, 4.82],
 "name": "BondStreet",
 "labelPos": "SW",
 "marker": "interchange"
},
{
 "coords": [-16, 0.86]
},
{
 "coords": [-14.76, -3.9],
 "name": "GreenPark",
 "labelPos": "NE",
 "marker" : "interchange"
},
{
 "coords": [-4.98, -11.16],
 "name": "Westminster",
 "labelPos": "SW",
 "marker" : "interchange"
},
{
 "coords": [-2.5, -13.78]
},
{
 "coords": [-2.5, -17.06],
 "name": "Waterloo",
 "labelPos": "W",
 "marker" : "interchange"
},
{
 "coords": [-2.26, -18.66]
},
{
 "coords": [-1.14, -19.56]
},
{
 "coords": [6.92, -19.56],
 "name": "Southwark",
 "labelPos": "S"
},
{
 "coords": [11.36, -19.44]
},
{
 "coords": [19.18, -12.18]
},
{
 "coords": [22.6, -12.18],
 "name": "LondonBridge",
 "labelPos": "SE",
 "marker": "interchange",
 "hide": true
},
{
 "coords": [31, -12.18],
 "name": "Bermondsey",
 "labelPos": "N"
},
{
 "coords": [42.34, -12.18],
 "name": "CanadaWater",
 "labelPos": "S"
},
{
 "coords": [58.02, -12.18],
 "name": "CanaryWharf",
 "labelPos": "NE"
},
{
 "coords": [60, -12]
},
{
 "coords": [63, -12]
},
{
 "coords": [67.44, -11.5],
 "name": "NorthGreenwich",
 "labelPos": "S"
},
{
 "coords": [70.28, -8.22]
},
{
 "coords": [70.28, -2.54],
 "name": "CanningTown",
 "labelPos": "NE",
 "marker": "interchange"
},
{
 "coords": [70.28, 12.32],
 "name": "WestHam",
 "marker": "interchange"
},
{
 "coords": [70.28, 16.42]
},
{
 "coords": [64.16, 20.98],
 "name": "Stratford",
 "hide":true
},
{
 "coords": [64.16, 20.98]
}]
},

{
"name": "Hammersmith&City",
"label": "City",
"color": "#F3A9BB",
"shiftCoords": [0, 0],
"nodes": [ {
 "coords": [-46.76, -10.26],
 "name": "Hammersmith",
 "labelPos": "W",
 "marker" : "interchange"
},{
 "coords": [-46.76, -5.58],
 "name": "GoldhawkRoad",
 "labelPos": "W"
},
{
 "coords": [-46.76, -2.72],
 "name": "ShepardsBushMarket",
 "labelPos": "W"
},
{
 "coords": [-46.76, 3.04],
 "name": "WoodLane",
 "labelPos": "W"
},
{
 "coords": [-46.76, 9.94],
 "name": "LatimerRoad",
 "labelPos": "E"
},
{
 "coords": [-44.82, 13.34],
 "name": "LadbrokeGrove",
 "labelPos": "NE",
 "hide": true
},
{
 "coords": [-43.08, 15.12],
 "name": "WestbournePark",
 "labelPos": "NW"
},
{
 "coords": [-41.04, 17.02],
 "name": "RoyalOak",
 "labelPos": "NW"
},
{
 "coords": [-39.5, 18.6]
},
{
 "coords": [-34, 18.6],
 "name": "Paddington",
 "marker":"interchange",
 "labelPos": "NE",
 "hide":true
},
{
 "coords": [-27.84, 18.6],
 "marker":"interchange",
 "name": "EdgwareRoad",
 "labelPos": "NE",
 "hide" : true
},
{
 "coords": [-14.6, 18.6],
 "name": "BakerStreet",
 "labelPos": "NE",
 "marker": "interchange"
},
{
 "coords": [-7.34, 18.6],
 "name": "GreatPortlandStreet",
 "labelPos": "NE"
},
{
 "coords": [3.56, 18.6],
 "name": "EustonSquare",
 "labelPos": "NE"
},
{
 "coords": [9.22, 18.6],
 "marker": "interchange"
},
{
 "coords": [17.16, 13.08],
 "name": "Farringdon",
 "labelPos": "NE"
},
{
 "coords": [20.9, 9.46],
 "name": "Barbican",
 "labelPos": "SW"
},
{
 "coords": [24.42, 9.46],
 "name": "Moorgate",
 "labelPos": "NE",
 "hide":true
},
{
 "coords": [28.82, 9.46],
 "name": "LiverpoolStreet",
 "labelPos": "N"
},
{
 "coords": [33.88, 9.24]
},
{
 "coords": [34.98, 7.8]
},
{
 "coords": [34.98, 2.18],
 "name": "AldgateEast",
 "labelPos": "NW"
},
{
 "coords": [42, -6],
 "name": "WhiteChapel",
 "labelPos": "NE",
 "hide": true
},
{
 "coords": [42, -6],
 "name": "StepneyGreen",
 "labelPos": "NE"
},
{
 "coords": [42, -6],
 "name": "MileEnd",
 "labelPos": "NE"
},
{
 "coords": [42, -6],
 "name": "BowRoad",
 "labelPos": "NE"
},
{
 "coords": [42, -6],
 "name": "Bromley-by-Bow",
 "labelPos": "S",
 "hide":true
},
{
 "coords": [42, -6],
 "name": "WestHam",
 "labelPos": "NE"
},
{
 "coords": [42, -6],
 "name": "Plaistow",
 "labelPos": "NE"
},
{
 "coords": [42, -6],
 "name": "UptonPark",
 "labelPos": "NW"
},
{
 "coords": [42, -6],
 "name": "EastHam",
 "labelPos": "NE",
 "hide":true
},
{
 "coords": [42, -6],
 "name": "Barking",
 "labelPos": "NE",
 "hide":true
}]
},
    {
    "name": "Picadilly",
    "label": "Picadilly",
    "color": "#0016BF",
    "shiftCoords": [0, 0],
    "nodes": [{
      "coords": [-99.22, -37.16],
      "name": "HeathrowTerminal5",
      "labelPos": "SE"
    }, {
        "coords": [-95, -33],
        "name": "HeathrowTerminal4",
        "labelPos": "SE"
      },
    {
      "coords": [-90.8, -29],
      "name": "HeathrowTerminals123",
      "labelPos": "NW"
    },
    {
          "coords": [-88.88, -26.04],
          "name": "HattonCross",
          "labelPos": "SE"
    },
    {
              "coords": [-86.26, -24.44],
              "name": "HunslowWest",
              "labelPos": "SE"
    },
    {
        "coords": [-84, -21.94],
        "name": "HunslowCentral",
        "labelPos": "SE"
    },
    {
        "coords": [-81.5, -19.56],
        "name": "HunslowEast",
        "labelPos": "SE"
    },
    {
        "coords": [-78.9, -16.96],
        "name": "Osterly",
        "labelPos": "SE"
    },
    {
        "coords": [-76.5, -14.46],
        "name": "BostonManor",
        "labelPos": "SE"
    },
    {
        "coords": [-74, -12.08],
        "name": "Northfields",
        "labelPos": "SE"
    },
    {
        "coords": [-72.08, -10.02]
    },
    {
        "coords": [-71.2, -10.02],
        "name": "SouthEaling",
        "labelPos": "NW"
    },
    {
        "coords": [-67.88, -10.02],
        "name": "ActonTown",
        "labelPos": "NE"
    },
    {
        "coords": [-60.5, -10.02],
        "name": "TurnhamGreen",
        "labelPos": "S"
    },
    {
        "coords": [-46.42, -10.02],
        "name": "Hammersmith",
        "labelPos": "SE"
    },
    {
        "coords": [-42.56, -10.02],
        "name": "BaronsCourt",
        "labelPos": "SE"
    },
    {
        "coords": [-34.74, -10.02],
        "name": "EarlsCourt",
        "labelPos": "SE"
    },
    {
        "coords": [-29.4, -10.02],
        "name": "GloucsterRoad",
        "labelPos": "SE"
    },
    {
        "coords": [-26.44, -10.02],
        "name": "SouthKensington",
        "labelPos": "SE"
    },
    {
        "coords": [-21, -6.06],
        "name": "Knightsbridge",
        "labelPos": "NW"
    },
    {
        "coords": [-18.72, -3.9],
        "name": "HydeParkCorner",
        "labelPos": "NW"
    },
    {
        "coords": [-14.76, -3.9],
        "name": "GreenPark",
        "labelPos": "SE"
    },
    {
        "coords": [-5.44, -3.9],
        "name": "PiccadillyCircus",
        "labelPos": "SE"
    },
    {
        "coords": [0, 0],
        "name": "LeicesterSquare",
        "labelPos": "SE"
    },
    {
        "coords": [1.94, 2.22],
        "name": "ConventGarden",
        "labelPos": "SE"
    },
    {
        "coords": [4.78, 5.18],
        "name": "Holborn",
        "labelPos": "SE"
    },
    {
        "coords": [8.06, 8.7]
    },
    {
        "coords": [8.06, 8.18],
        "name": "RussellSquare",
        "labelPos": "SE"
    },
    {
        "coords": [9.2, 9]
    },
    {
        "coords": [9.2, 16.86],
        "name": "KingsCrossStPancras",
        "labelPos": "SE"
    },
    {
        "coords": [23.28, 30.94],
        "name": "CaledonianRoad",
        "labelPos": "NW"
    },
    {
        "coords": [26.22, 34],
        "name": "HollowayRoad",
        "labelPos": "NW"
    },
    {
        "coords": [28.84, 36.5],
        "name": "Arsenal",
        "labelPos": "NW"
    },
    {
        "coords": [32.14, 39.8],
        "name": "FinsburyPark",
        "labelPos": "S"
    },
    {
        "coords": [33.6, 42.2]
    },

    {
        "coords": [33.6, 45.02],
        "name": "ManorHouse",
        "labelPos": "W"
    },
    {
        "coords": [33.6, 48.64],
        "name": "TurnpikeLane",
        "labelPos": "W"
    },
    {
        "coords": [33.6, 51.36],
        "name": "WoodGreen",
        "labelPos": "W"
    },
    {
        "coords": [33.6, 53.98],
        "name": "BoundsGreen",
        "labelPos": "W"
    },
    {
        "coords": [33.6, 56.7],
        "name": "ArnosGrove",
        "labelPos": "W"
    },
    {
        "coords": [33.6, 59.42],
        "name": "SouthGate",
        "labelPos": "W"
    },
    {
        "coords": [33.6, 62.14],
        "name": "Oakwood",
        "labelPos": "W"
    },
    {
        "coords": [33.6, 64.76],
        "name": "Cockfosters",
        "labelPos": "W"
    }

  ]
  },
  {
    "name": "Picadilly(viaUxbridge)",
    "label": "Picadilly",
    "color": "#0016BF",
    "shiftCoords": [0, 0],
    "nodes": [  {
        "coords": [-98.5, 49.32],
        "name": "Uxbridge",
        "labelPos": "S"
      },   {
          "coords": [-91.46, 49.32],
          "name": "Hillingdon",
          "labelPos": "N"
        },
        {
          "coords": [-85.74, 49.32],
          "name": "Ickenham",
          "labelPos": "S"
        },
        {
          "coords": [-77.38, 49.32],
          "name": "Ruislip",
          "labelPos": "SE"
        },
        {
          "coords": [-73.74, 48.44],
          "name": "RuislipManor",
          "labelPos": "NE"
        },
        {
          "coords": [-71.88, 46.56],
          "name": "Eastcote",
          "labelPos": "NE"
        },
        {
          "coords": [-71.02, 45.12],
          "name": "RaynersLane",
          "labelPos": "SW"
        },
        {
          "coords": [-68.8, 42.58]
        },
        {
          "coords": [-68.6, 39.2],
          "name": "SouthHarrow",
          "labelPos": "W"
        },
        {
          "coords": [-68.6, 33.98],
          "name": "SudburyHill",
          "labelPos": "W"
        },
        {
          "coords": [-68.6, 28.96],
          "name": "SudburyTown",
          "labelPos": "W"
        },
        {
          "coords": [-68.6, 23.96],
          "name": "Alperton",
          "labelPos": "W"
        },
        {
          "coords": [-68.6, 12.5],
          "name": "ParkRoyal",
          "labelPos": "W"
        },
        {
          "coords": [-68.6, 9.52],
          "name": "NorthEaling",
          "labelPos": "W"
        },
        {
          "coords": [-68.6, -1],
          "name": "EalingCommon",
          "labelPos": "SE"
        },
        {
          "coords": [-68.6, -8.16]
        },

        {
          "coords": [-67.68, -10],
          "name": "ActonTown",
          "labelPos": "NE",
          "color": "#9b0056",
          "hide": true
        }

      ]
    }],
  "river": {
    "name": "River",
    "label": "River",
    "shiftCoords": [0, 0],
    "nodes": [{
      "coords": [-101.92, -39.76]
    },{
      "coords": [-68.88, -39.76]
    },{
      "coords": [-68.24, -39.44]
    },{
      "coords": [-67.92, -38.44]
    },{
      "coords": [-67.92, -23.02]
    }, {
      "coords": [-67.14, -21.82]
    }, {
      "coords": [-65.82, -21.16]
    }, {
      "coords": [-54.432, -21.36]
    }, {
      "coords": [-44.68, -30.74]
    }, {
      "coords": [-12.22, -30.74]
    }, {
      "coords": [-11.9, -15.2]
    }, {
      "coords": [10, -15.2]
    }, {
      "coords": [17.5, -7.84]
    }, {
      "coords": [45.22, -7.84]
    },{
      "coords": [46.88, -7.84]
    },{
      "coords": [46.88, -26]
    },
    {
      "coords": [48.2, -26.66]
    },{
      "coords": [59.32, -26.66]
    },{
      "coords": [59.76, -10.36]
    },
    {
      "coords": [61.84, -8.38]
    },{
      "coords": [75.5, -8.38]
    },{
      "coords": [77.58, -10.48]
    },
    {
      "coords": [77.92, -21.92]
    },{
      "coords": [110.7, -21.92]
    }]
  }

}
