{
  "stations": {
    "ActonTown": {
      "title": "Alexandra\nArms",
      "place_id": "ChIJaVrou4hw2EcROetQMMOP12M",
      "address": "22 Gwydir St, Cambridge CB1 2LL",
      "website": "http://www.thealexcambridge.com/",
      "phone": "01223 324441",
      "position": {
        "lat": 51.502500,
        "lon": 0.278126
      }
    },
    "Aldgate": {
      "title": "Alexandra\nArms",
      "place_id": "ChIJaVrou4hw2EcROetQMMOP12M",
      "address": "22 Gwydir St, Cambridge CB1 2LL",
      "website": "http://www.thealexcambridge.com/",
      "phone": "01223 324441",
      "position": {
        "lat": 51.51394,
        "lon": 0.07537
      }
    },
    "AldgateEast": {
      "title": "Aldgate East",
      "place_id": "ChIJaVrou4hw2EcROetQMMOP12M",
      "address": "22 Gwydir St, Cambridge CB1 2LL",
      "website": "http://www.thealexcambridge.com/",
      "phone": "01223 324441",
      "position": {
        "lat": 51.51514,
        "lon": 0.07178
      }
    },
    "Alperton": {
      "title": "Alperton",
      "place_id": "ChIJaVrou4hw2EcROetQMMOP12M",
      "address": "22 Gwydir St, Cambridge CB1 2LL",
      "website": "http://www.thealexcambridge.com/",
      "phone": "01223 324441",
      "position": {
        "lat": 51.51514,
        "lon": 0.07178
      }
    },
    "Amersham": {
      "title": "Amersham",
      "place_id": "hIJocwdyrxw2EcRnogp-KBkY_o",
      "address": "Silver Street, Cambridge, CB3 9EL",
      "website": "http://www.anchorcambridge.com",
      "phone": "01223 353554",
      "position": {
        "lat": 51.67435,
        "lon": 0.60732
      }
    },
    "Angel": {
      "title": "Angel",
      "place_id": "ChIJI5agpzlw2EcR55ZT5vZy_ok",
      "address": "5 High St, Fen Ditton, Cambridge, CB5 8ST",
      "website": "http://www.theancientshepherds.co.uk/",
      "phone": "01223 293280",
      "position": {
        "lat": 51.53253,
        "lon": 0.10579
      }
    },
    "Archway": {
      "title": "Archway",
      "place_id": "ChIJX3Dbo7hw2EcR4iVxgX74BlU",
      "address": "43 Castle St, Cambridge, CB3 0AH",
      "website": "http://www.thearchitectcambridge.co.uk/",
      "phone": "01223 563779",
      "position": {
        "lat": 51.56536,
        "lon": 0.13474
      }
    },
    "ArnosGrove": {
      "title": "Arnos Grove",
      "place_id": "ChIJX3Dbo7hw2EcR4iVxgX74BlU",
      "address": "43 Castle St, Cambridge, CB3 0AH",
      "website": "http://www.thearchitectcambridge.co.uk/",
      "phone": "01223 563779",
      "position": {
        "lat": 51.61625,
        "lon": 0.13355
      }
    },
    "Arsenal": {
      "title": "Architect",
      "place_id": "ChIJX3Dbo7hw2EcR4iVxgX74BlU",
      "address": "43 Castle St, Cambridge, CB3 0AH",
      "website": "http://www.thearchitectcambridge.co.uk/",
      "phone": "01223 563779",
      "position": {
        "lat": 51.55847,
        "lon": 0.10561
      }
    },
    "BakerStreet": {
      "title": "BakerStreet",
      "place_id": "ChIJVeAxW75w2EcRkM91IuEN_oU",
      "address": "19 Bridge St, Cambridge CB2 1UF",
      "website": "http://www.baronofbeef-cambridge.co.uk/",
      "phone": "01223 505022",
      "position": {
        "lat": 51.52265,
        "lon": 0.15704
      }
    },
    "Balham": {
      "title": "Balham",
      "address": "3 Benet Street, Cambridge, CB2 3QN",
      "website": "http://www.bathhouse-cambridge.co.uk/",
      "phone": "01223 350969",
      "position": {
        "lat": 51.44344113,
        "lon": 0.152945844
      }
    },
    "Bank": {
      "title": "Bank",
      "address": "3 Benet Street, Cambridge, CB2 3QN",
      "website": "http://www.bathhouse-cambridge.co.uk/",
      "phone": "01223 350969",
      "position": {
        "lat": 51.5134047,
        "lon": 0.08905843
      }
    },
    "Barbican": {
      "title": "Barbican",
      "address": "3 Benet Street, Cambridge, CB2 3QN",
      "website": "http://www.bathhouse-cambridge.co.uk/",
      "phone": "01223 350969",
      "position": {
        "lat": 51.520865,
        "lon": 0.097758
      }
    },

    "Barking": {
      "title": "Barking",
      "address": "3 Benet Street, Cambridge, CB2 3QN",
      "website": "http://www.bathhouse-cambridge.co.uk/",
      "phone": "01223 350969",
      "position": {
        "lat": 51.54079,
        "lon": 0.08018
      }
    },
    "Barkingside": {
      "title": "Barkingside",
      "address": "3 Benet Street, Cambridge, CB2 3QN",
      "website": "http://www.bathhouse-cambridge.co.uk/",
      "phone": "01223 350969",
      "position": {
        "lat": 51.58543,
        "lon": 0.08854
      }
    },
    "BaronsCourt": {
      "title": "Barons Court",
      "address": "3 Benet Street, Cambridge, CB2 3QN",
      "website": "http://www.bathhouse-cambridge.co.uk/",
      "phone": "01223 350969",
      "position": {
        "lat": 51.490281,
        "lon": 0.214340
      }
    },
    "Bayswater": {
      "title": "Blue Ball Inn",
      "address": "57 Broadway, Grantchester, Cambridge CB3 9NQ",
      "website": "http://www.blueballgrantchester.co.uk/",
      "phone": "01223 846004",
      "position": {
        "lat": 51.51224,
        "lon": 0.187569
      }
    },
    "Becontree": {
      "title": "Blue Moon",
      "address": "2 Norfolk St, Cambridge CB1 2LF",
      "website": "https://www.facebook.com/bluemooncambridge/",
      "phone": "01223 500238",
      "position": {
        "lat": 51.54029,
        "lon": 0.12620
      }
    },
    "BelsizePark": {
      "title": "Belsize Park",
      "address": "14 Chesterton Rd, Cambridge CB4 3AX",
      "website": "http://www.boathouse-cambridge.co.uk/",
      "phone": "01223 460905",
      "position": {
        "lat": 51.55036,
        "lon": 0.16465
      }
    },
    "Bermondsey": {
      "title": "Belsize Park",
      "address": "14 Chesterton Rd, Cambridge CB4 3AX",
      "website": "http://www.boathouse-cambridge.co.uk/",
      "phone": "01223 460905",
      "position": {
        "lat": 51.49813,
        "lon": 0.06350
      }
    },
    "BethnalGreen": {
      "title": "Bethnal Green",
      "address": "14 Chesterton Rd, Cambridge CB4 3AX",
      "website": "http://www.boathouse-cambridge.co.uk/",
      "phone": "01223 460905",
      "position": {
        "lat": 51.52718,
        "lon": 0.05504
      }
    },

    "Blackfriars": {
      "title": "Bethnal Green",
      "address": "14 Chesterton Rd, Cambridge CB4 3AX",
      "website": "http://www.boathouse-cambridge.co.uk/",
      "phone": "01223 460905",
      "position": {
        "lat": 51.5114403,
        "lon": 0.10419050
      }
    },
    "BlackhorseRoad": {
      "title": "Blackhorse Road",
      "address": "14 Chesterton Rd, Cambridge CB4 3AX",
      "website": "http://www.boathouse-cambridge.co.uk/",
      "phone": "01223 460905",
      "position": {
        "lat": 51.58698,
        "lon": 0.04104
      }
    },
    "BondStreet": {
      "title": "Bond Street",
      "address": "14 Chesterton Rd, Cambridge CB4 3AX",
      "website": "http://www.boathouse-cambridge.co.uk/",
      "phone": "01223 460905",
      "position": {
        "lat": 51.58698,
        "lon": 0.04104
      }
    },
    "Borough": {
      "title": "Borough",
      "address": "14 Chesterton Rd, Cambridge CB4 3AX",
      "website": "http://www.boathouse-cambridge.co.uk/",
      "phone": "01223 460905",
      "position": {
        "lat": 51.50095,
        "lon": 0.09446
      }
    },
    "BostonManor": {
      "title": "Borough Manor",
      "address": "14 Chesterton Rd, Cambridge CB4 3AX",
      "website": "http://www.boathouse-cambridge.co.uk/",
      "phone": "01223 460905",
      "position": {
        "lat": 51.495371,
        "lon": 0.325573
      }
    },



    "BostonManor": {
      "title": "Boston Manor",
      "address": "14 Chesterton Rd, Cambridge CB4 3AX",
      "website": "http://www.boathouse-cambridge.co.uk/",
      "phone": "01223 460905",
      "position": {
        "lat": 51.495371,
        "lon": 0.325573
      }
    },

    "BoundsGreen": {
      "title": "Bounds Green",
      "address": "14 Chesterton Rd, Cambridge CB4 3AX",
      "website": "http://www.boathouse-cambridge.co.uk/",
      "phone": "01223 460905",
      "position": {
        "lat": 51.60700,
        "lon": 0.12418
      }
    },
    "BowRoad": {
      "title": "Bow Road",
      "address": "14 Chesterton Rd, Cambridge CB4 3AX",
      "website": "http://www.boathouse-cambridge.co.uk/",
      "phone": "01223 460905",
      "position": {
        "lat": 51.52709,
        "lon": 0.02482
      }
    },
    "BrentCross": {
      "title": "Brent Cross",
      "address": "1 King St, Cambridge CB1 1LH",
      "website": "http://www.thecambridgebrewhouse.com/",
      "phone": "01223 855185",
      "position": {
        "lat": 51.57693,
        "lon": 0.21414
      }
    },
    "Brixton": {
      "title": "Brixton",
      "address": "1 King St, Cambridge CB1 1LH",
      "website": "http://www.thecambridgebrewhouse.com/",
      "phone": "01223 855185",
      "position": {
        "lat": 51.46239,
        "lon": 0.115421
      }
    },
    "Bromley-by-Bow": {
      "title": "Bromley-by-Bow",
      "address": "25 Brookfields, Cambridge CB1 3NW",
      "website": "http://www.thebrookpub.co.uk/",
      "phone": "01223 566929",
      "position": {
        "lat": 51.52466,
        "lon": 0.01282
      }
    },
    "BuckhurstHill": {
      "title": "Buckhurst Hill",
      "address": "9-11 Newmarket Rd, Cambridge CB5 8EG",
      "website": "http://www.burleigharmscambridge.co.uk/",
      "phone": "01223 301547",
      "position": {
        "lat": 51.62611,
        "lon": 0.04705
      }
    },
    "BurntOak": {
      "title": "Burnt Oak",
      "address": "9-11 Newmarket Rd, Cambridge CB5 8EG",
      "website": "http://www.burleigharmscambridge.co.uk/",
      "phone": "01223 301547",
      "position": {
        "lat": 51.60300,
        "lon": 0.26427
      }
    },

    "CaledonianRoad": {
      "title": "Caledonian Road",
      "address": "85-87 Gwydir St, Cambridge CB1 2LG",
      "website": "http://www.the-cambridgeblue.co.uk/",
      "phone": "01223 471680",
      "position": {
        "lat": 51.54850,
        "lon": 0.11802
      }
    },
    "CamdenTown": {
      "title": "Camden Town",
      "address": "Carlton Way, Cambridge CB4 2DF",
      "website": "http://thecarltonarmscambridge.co.uk/",
      "phone": "01223 367422",
      "position": {
        "lat": 51.53930,
        "lon": 0.14316
      }
    },
    "CanadaWater": {
      "title": "Canada Water",
      "address": "184-186 Victoria Rd, Cambridge, CB4 3DZ",
      "website": "http://www.carpentersarmscambridge.co.uk/",
      "phone": "01223 367050",
      "position": {
        "lat": 51.49787,
        "lon": 0.04967
      }
    },
    "CanaryWharf": {
      "title": "Canary Wharf",
      "place_id": "ChIJoccoXsdw2EcROG63agLdFi4",
      "website": "http://thecastleinncambridge.com/",
      "phone": "01223 353194",
      "position": {
        "lat": 51.50362,
        "lon": 0.01987
      }
    },
    "CanningTown": {
      "title": "Canning Town",
      "address": "68 King St, Cambridge CB1 1LN",
      "position": {
        "lat": 51.51141,
        "lon": 0.09047
      }
    },
    "CannonStreet": {
      "title": "Champion\nof the\nThames",
      "address": "68 King St, Cambridge CB1 1LN",
      "position": {
        "lat": 51.51141,
        "lon": 0.09047
      }
    },
    "CanonsPark": {
      "title": "Canons Park",
      "address": "68 King St, Cambridge CB1 1LN",
      "position": {
        "lat": 51.60810,
        "lon": 0.29487
      }
    },
    "Chalfont&Latimer": {
      "title": "Chalfont & Latimer",
      "address": "68 King St, Cambridge CB1 1LN",
      "position": {
        "lat": 51.66822,
        "lon": 0.56053
      }
    },
    "ChalkFarm": {
      "title": "Chalk Farm",
      "address": "68 King St, Cambridge CB1 1LN",
      "position": {
        "lat": 51.54390,
        "lon": 0.15384
      }
    },
    "ChanceryLane": {
      "title": "Chancery Lane",
      "address": "68 King St, Cambridge CB1 1LN",
      "position": {
        "lat": 51.51836,
        "lon": 0.11115
      }
    },
    "CharingCross": {
      "title": "Chancery Lane",
      "address": "68 King St, Cambridge CB1 1LN",
      "position": {
        "lat": 51.507108,
        "lon": 0.122963
      }
    },
    "Chesham": {
      "title": "Chesham",
      "address": "68 King St, Cambridge CB1 1LN",
      "position": {
        "lat": 51.70522733,
        "lon": 0.610986426
      }
    },
    "Chigwell": {
      "title": "Chesham",
      "address": "68 King St, Cambridge CB1 1LN",
      "position": {
        "lat": 51.61795,
        "lon": 0.07511
      }
    },
    "ChiswickPark": {
      "title": "Chiswick Park",
      "address": "68 King St, Cambridge CB1 1LN",
      "position": {
        "lat": 51.49466,
        "lon": 0.26866
      }
    },
    "Chorleywood": {
      "title": "Chorleywood",
      "address": "68 King St, Cambridge CB1 1LN",
      "position": {
        "lat": 51.65429872,
        "lon": 0.518373353
      }
    },
    "ClaphamCommon": {
      "title": "Clapham Common",
      "address": "35-36 Clarendon St, Cambridge CB1 1JX",
      "phone": "01223 778272",
      "position": {
        "lat": 51.46156,
        "lon": 0.13802
      }
    },

    "ClaphamNorth": {
      "title": "Clapham North",
      "address": "35-36 Clarendon St, Cambridge CB1 1JX",
      "phone": "01223 778272",
      "position": {
        "lat": 51.46522,
        "lon": 0.12950
      }
    },
    "ClaphamSouth": {
      "title": "Clapham South",
      "address": "35-36 Clarendon St, Cambridge CB1 1JX",
      "phone": "01223 778272",
      "position": {
        "lat": 51.45292257,
        "lon": 0.147562148
      }
    },

    "Cockfosters": {
      "title": "Convent Garden",
      "address": "231 Newmarket Rd, Cambridge CB5 8JE",
      "phone": "01223 352047",
      "position": {
        "lat": 51.65117,
        "lon": 0.14811
      }
    },
    "Colindale": {
      "title": "Colindale",
      "address": "35-36 Clarendon St, Cambridge CB1 1JX",
      "phone": "01223 778272",
      "position": {
        "lat": 51.59556,
        "lon": 0.24996
      }
    },
    "ColliersWood": {
      "title": "Colliers Wood",
      "address": "35-36 Clarendon St, Cambridge CB1 1JX",
      "phone": "01223 778272",
      "position": {
        "lat": 51.41823649,
        "lon": 0.17800983
      }
    },
    "ConventGarden": {
      "title": "Convent Garden",
      "address": "231 Newmarket Rd, Cambridge CB5 8JE",
      "phone": "01223 352047",
      "position": {
        "lat": 51.51308,
        "lon": 0.12427
      }
    },
    "Croxley": {
      "title": "Croxley",
      "address": "231 Newmarket Rd, Cambridge CB5 8JE",
      "phone": "01223 352047",
      "position": {
        "lat": 51.64733268,
        "lon": 0.441479115
      }
    },
    "DagenhamEast": {
      "title": "Dagenham East",
      "address": "231 Newmarket Rd, Cambridge CB5 8JE",
      "phone": "01223 352047",
      "position": {
        "lat": 51.54396,
        "lon": 0.16439
      }
    },
    "DagenhamHeathway": {
      "title": "Dagenham Heathway",
      "address": "18 Melbourne Pl, Cambridge CB1 1EQ",
      "website": "http://lukthai.com/",
      "phone": "01223 778871",
      "position": {
        "lat": 51.54173,
        "lon": 0.14543
      }
    },
    "Debden": {
      "title": "Debden",
      "address": "184 Sturton St, Cambridge, CB1 2QF",
      "website": "http://www.thedobblers.com/",
      "phone": "01223 576092",
      "position": {
        "lat": 51.64535,
        "lon": 0.08364
      }
    },
    "DollisHill": {
      "title": "Dollis Hill",
      "address": "176 East Rd, Cambridge CB1 1BG",
      "website": "http://www.dukeofcambridge-cambridge.co.uk/",
      "phone": "01223 304121",
      "position": {
        "lat": 51.55250,
        "lon": 0.23884
      }
    },

    "DollisHill": {
      "title": "Dollis Hill",
      "address": "176 East Rd, Cambridge CB1 1BG",
      "website": "http://www.dukeofcambridge-cambridge.co.uk/",
      "phone": "01223 304121",
      "position": {
        "lat": 51.55250,
        "lon": 0.23884
      }
    },
    "EalingBroadway": {
      "title": "Ealing Broadway",
      "address": "8 Benet Street, Cambridge, CB2 3QN",
      "website": "http://www.eagle-cambridge.co.uk/",
      "phone": "01223 505020",
      "position": {
        "lat": 51.51482,
        "lon": 0.30118
      }
    },
    "EalingCommon": {
      "title": "Ealing Common",
      "address": "133 Mill Rd, Cambridge CB1 3AA",
      "website": "http://www.earlofbeaconsfield.co.uk/",
      "phone": "01223 410703",
      "position": {
        "lat": 51.50997,
        "lon": 0.28825
      }
    },
    "EarlsCourt": {
      "title": "Earls Court",
      "address": "129 Hills Rd, Cambridge CB2 1PG",
      "website": "http://www.theearlofderby.com/",
      "phone": "01223 352785",
      "position": {
        "lat": 51.491521,
        "lon": 0.193906
      }
    },
    "EastActon": {
      "title": "East Acton",
      "address": "129 Hills Rd, Cambridge CB2 1PG",
      "website": "http://www.theearlofderby.com/",
      "phone": "01223 352785",
      "position": {
        "lat": 51.51753,
        "lon": 0.24827
      }
    },
    "EastFinchley": {
      "title": "East Acton",
      "address": "129 Hills Rd, Cambridge CB2 1PG",
      "website": "http://www.theearlofderby.com/",
      "phone": "01223 352785",
      "position": {
        "lat": 51.5872974705487,
        "lon": 0.16495632312818
      }
    },
    "EastHam": {
      "title": "East Ham",
      "address": "129 Hills Rd, Cambridge CB2 1PG",
      "website": "http://www.theearlofderby.com/",
      "phone": "01223 352785",
      "position": {
        "lat": 51.53931,
        "lon": 0.05260
      }
    },
    "EastPutney": {
      "title": "East Putney",
      "address": "129 Hills Rd, Cambridge CB2 1PG",
      "website": "http://www.theearlofderby.com/",
      "phone": "01223 352785",
      "position": {
        "lat": 51.459015,
        "lon": 51.459015
      }
    },
    "Eastcote": {
      "title": "Eastcote",
      "address": "129 Hills Rd, Cambridge CB2 1PG",
      "website": "http://www.theearlofderby.com/",
      "phone": "01223 352785",
      "position": {
        "lat": 51.57676,
        "lon": 0.39629
      }
    },
    "Edgware": {
      "title": "Edgware",
      "address": "16A Orchard St, Cambridge CB1 1JT",
      "website": "http://www.theelmtreecambridge.co.uk/",
      "phone": "01223 502632",
      "position": {
        "lat": 51.61385,
        "lon": -0.27515
      }
    },
    "EdgwareRoad": {
      "title": "Eddgeware Road",
      "address": "16A Orchard St, Cambridge CB1 1JT",
      "website": "http://www.theelmtreecambridge.co.uk/",
      "phone": "01223 502632",
      "position": {
        "lat": 51.520195,
        "lon": 0.166986
      }
    },

    "Elephant&Castle": {
      "title": "Elephant&Castle",
      "address": "16A Orchard St, Cambridge CB1 1JT",
      "website": "http://www.theelmtreecambridge.co.uk/",
      "phone": "01223 502632",
      "position": {
        "lat": 51.49467,
        "lon": 0.10047
      }
    },

    "ElmPark": {
      "title": "Elm Park",
      "address": "16A Orchard St, Cambridge CB1 1JT",
      "website": "http://www.theelmtreecambridge.co.uk/",
      "phone": "01223 502632",
      "position": {
        "lat": 51.54969,
        "lon": 0.19779
      }
    },
    "Embankment": {
      "title": "Embankment",
      "address": "72 Thoday St, Cambridge, CB1 3AX",
      "phone": "01223 247236",
      "position": {
        "lat": 51.50717,
        "lon": 0.12195
      }
    },
    "Epping": {
      "title": "Epping",
      "address": "72 Thoday St, Cambridge, CB1 3AX",
      "phone": "01223 247236",
      "position": {
        "lat": 51.69365,
        "lon": 0.11495
      }
    },

    "Euston": {
      "title": "Euston",
      "address": "72 Thoday St, Cambridge, CB1 3AX",
      "phone": "01223 247236",
      "position": {
        "lat": 51.52774,
        "lon": -0.13303
      }
    },
    "EustonSquare": {
      "title": "Euston Square",
      "address": "72 Thoday St, Cambridge, CB1 3AX",
      "phone": "01223 247236",
      "position": {
        "lat": 51.52584,
        "lon": -0.13570
      }
    },
    "Fairlop": {
      "title": "Fairlop",
      "address": "72 Thoday St, Cambridge, CB1 3AX",
      "phone": "01223 247236",
      "position": {
        "lat": 51.59634,
        "lon": 0.09125
      }
    },
    "Farringdon": {
      "title": "Farringdon",
      "address": "72 Thoday St, Cambridge, CB1 3AX",
      "phone": "01223 247236",
      "position": {
        "lat": 51.520362948,
        "lon": -0.105126482
      }
    },
    "FinchleyCentral": {
      "title": "Finchley Central",
      "address": "72 Thoday St, Cambridge, CB1 3AX",
      "phone": "01223 247236",
      "position": {
        "lat": 51.60102,
        "lon": -0.19240
      }
    },
    "FinchleyRoad": {
      "title": "Finchley Road",
      "address": "72 Thoday St, Cambridge, CB1 3AX",
      "phone": "01223 247236",
      "position": {
        "lat": 51.546701,
        "lon": -0.179867
      }
    },
    "FinsburyPark": {
      "title": "Finsbury Park",
      "address": "106 Hills Rd, Cambridge, CB2 1LQ",
      "phone": "01223 354623",
      "position": {
        "lat": 51.56498,
        "lon": 0.10543
      }
    },
    "FulhamBroadway": {
      "title": "Fulham Broadway",
      "address": "106 Hills Rd, Cambridge, CB2 1LQ",
      "phone": "01223 354623",
      "position": {
        "lat": 52.194474,
        "lon": 0.131747
      }
    },
    "GantsHill": {
      "title": "Gants Hill",
      "address": "Cambridge CB4 1HA",
      "website": "http://www.fortstgeorge-cambridge.co.uk/",
      "phone": "01223 305523",
      "position": {
        "lat": 51.57649,
        "lon": 0.06637
      }
    },
    "GloucsterRoad": {
      "title": "Gloucster Road",
      "address": "1 Ainsworth St, Cambridge, CB1 2PF",
      "website": "http://www.the-geldart.co.uk/",
      "phone": "01223 314264",
      "position": {
        "lat": 51.49408266,
        "lon": 0.17295341
      }
    },
    "GoldersGreen": {
      "title": "GoldersGreen",
      "address": "355 Milton Rd, Cambridge, CB4 1SP",
      "website": "http://www.golden-hind-pub-cambridge.co.uk/",
      "phone": "01223 420816",
      "position": {
        "lat": 52.227922,
        "lon": 0.145524
      }
    },
    "GoldhawkRoad": {
      "title": "Goldhawk Road",
      "address": "69-76 Regent St, Cambridge CB2 1AA",
      "website": "http://www.grainandhopstore-cambridge.co.uk/",
      "phone": "01223 323405",
      "position": {
        "lat": 52.200689,
        "lon": 0.126622
      }
    },
    "GoodgeStreet": {
      "title": "Goodge Street",
      "address": "14 Newnham Rd, Cambridge, CB3 9EX",
      "website": "http://www.granta-cambridge.co.uk/",
      "phone": "01223 505016",
      "position": {
        "lat": 51.52060,
        "lon": -0.13441
      }
    },
    "GrangeHill": {
      "title": "Grange Hill",
      "address": "5 Water St, Cambridge CB4 1NZ",
      "website": "http://www.greendragon-cambridge.co.uk/",
      "phone": "01223 505035",
      "position": {
        "lat": 51.61326,
        "lon": 0.09258
      }
    },
    "GreatPortlandStreet": {
      "title": "Great Portland Street",
      "address": "59 High St, Grantchester, Cambridge CB3 9NF",
      "website": "http://www.thegreenmangrantchester.co.uk/",
      "phone": "01223 844669",
      "position": {
        "lat": 51.52391,
        "lon": -0.14397
      }
    },
    "Greenford": {
      "title": "Greenford",
      "address": "55 High St, Cambridge, Trumpington CB2 9HZ",
      "website": "http://www.thegreenmantrumpington.com/",
      "phone": "01223 844903",
      "position": {
        "lat": 51.542346,
        "lon": -0.345903
      }
    },
    "Gunnersbury": {
      "title": "Gunnersbury",
      "address": "55 High St, Cambridge, Trumpington CB2 9HZ",
      "website": "http://www.thegreenmantrumpington.com/",
      "phone": "01223 844903",
      "position": {
        "lat": 51.49126844,
        "lon": -0.275554312
      }
    },
    "GreenPark": {
      "title": "Green Park",
      "address": "55 High St, Cambridge, Trumpington CB2 9HZ",
      "website": "http://www.thegreenmantrumpington.com/",
      "phone": "01223 844903",
      "position": {
        "lat": 51.50674,
        "lon": 0.14276
      }
    },
    "Hainault": {
      "title": "Hainault",
      "address": "54 High St, Cambridge CB4 1NG",
      "website": "https://www.facebook.com/cambridgehaymakers",
      "phone": "01223 311077",
      "position": {
        "lat": 51.60288,
        "lon": 0.09332
      }
    },
    "Hammersmith": {
      "title": "Hammersmith",
      "address": "54 High St, Cambridge CB4 1NG",
      "website": "https://www.facebook.com/cambridgehaymakers",
      "phone": "01223 311077",
      "position": {
        "lat": 52.217339,
        "lon": 0.139439
      }
    },
    "Hampstead": {
      "title": "Hampstead",
      "address": "54 High St, Cambridge CB4 1NG",
      "website": "https://www.facebook.com/cambridgehaymakers",
      "phone": "01223 311077",
      "position": {
        "lat": 51.55645,
        "lon": -0.17851
      }
    },
    "HangerLane": {
      "title": "Hanger Lane",
      "address": "54 High St, Cambridge CB4 1NG",
      "website": "https://www.facebook.com/cambridgehaymakers",
      "phone": "01223 311077",
      "position": {
        "lat": 51.5300,
        "lon": -0.2929
      }
    },
    "Harlesden": {
      "title": "Harlesden",
      "address": "54 High St, Cambridge CB4 1NG",
      "website": "https://www.facebook.com/cambridgehaymakers",
      "phone": "01223 311077",
      "position": {
        "lat": 51.53628278,
        "lon": -0.257622488
      }
    },
    "Harrow&Wealdstone": {
      "title": "Harrow & Wealdstone",
      "address": "54 High St, Cambridge CB4 1NG",
      "website": "https://www.facebook.com/cambridgehaymakers",
      "phone": "01223 311077",
      "position": {
        "lat": 51.59205973,
        "lon": -0.334725352
      }
    },
    "Harrow-on-the-Hill": {
      "title": "Harrow-on-the-Hill",
      "address": "54 High St, Cambridge CB4 1NG",
      "website": "https://www.facebook.com/cambridgehaymakers",
      "phone": "01223 311077",
      "position": {
        "lat": 51.579335,
        "lon": -0.337052
      }
    },
    "HattonCross": {
      "title": "Hatton Cross",
      "address": "54 High St, Cambridge CB4 1NG",
      "website": "https://www.facebook.com/cambridgehaymakers",
      "phone": "01223 311077",
      "position": {
        "lat": 51.466988,
        "lon": 0.423035
      }
    },
    "HeathrowTerminal5": {
      "title": "Heathrow Terminal 5",
      "address": "54 High St, Cambridge CB4 1NG",
      "website": "https://www.facebook.com/cambridgehaymakers",
      "phone": "01223 311077",
      "position": {
        "lat": 51.4715,
        "lon": 0.4880
      }
    },
    "HeathrowTerminals123": {
      "title": "Heathrow Terminals 123",
      "address": "54 High St, Cambridge CB4 1NG",
      "website": "https://www.facebook.com/cambridgehaymakers",
      "phone": "01223 311077",
      "position": {
        "lat": 51.4715,
        "lon": 0.4880
      }
    },"HeathrowTerminal4": {
      "title": "Heathrow Terminal 4",
      "address": "54 High St, Cambridge CB4 1NG",
      "website": "https://www.facebook.com/cambridgehaymakers",
      "phone": "01223 311077",
      "position": {
        "lat": 51.4715,
        "lon": 0.4880
      }
    },

    "HendonCentral": {
      "title": "Hendon Central",
      "address": "54 High St, Cambridge CB4 1NG",
      "website": "https://www.facebook.com/cambridgehaymakers",
      "phone": "01223 311077",
      "position": {
        "lat": 51.4715,
        "lon": 0.4880
      }
    },
    "HighBarnet": {
      "title": "High Barnet",
      "address": "54 High St, Cambridge CB4 1NG",
      "website": "https://www.facebook.com/cambridgehaymakers",
      "phone": "01223 311077",
      "position": {
        "lat": 51.6506519031751,
        "lon": -0.194138165994553
      }
    },
    "HighStreetKensingtion": {
      "title": "High Street Kensington",
      "address": "54 High St, Cambridge CB4 1NG",
      "website": "https://www.facebook.com/cambridgehaymakers",
      "phone": "01223 311077",
      "position": {
        "lat": 51.5003459144,
        "lon": 0.1923516640
      }
    },
    "Highbury&Islington": {
      "title": "Highbury & Islington",
      "address": "54 High St, Cambridge CB4 1NG",
      "website": "https://www.facebook.com/cambridgehaymakers",
      "phone": "01223 311077",
      "position": {
        "lat": 51.54502,
        "lon": -0.10752
      }
    },
    "Highgate": {
      "title": "Highgate",
      "address": "54 High St, Cambridge CB4 1NG",
      "website": "https://www.facebook.com/cambridgehaymakers",
      "phone": "01223 311077",
      "position": {
        "lat": 51.57722,
        "lon": -0.14553
      }
    },
    "Hillingdon": {
      "title": "Hillingdon",
      "address": "54 High St, Cambridge CB4 1NG",
      "website": "https://www.facebook.com/cambridgehaymakers",
      "phone": "01223 311077",
      "position": {
        "lat": 51.55364,
        "lon": -0.45062
      }
    },
    "Holborn": {
      "title": "Holborn",
      "address": "11-12 Fair St, Cambridge, CB1 1HA",
      "website": "http://www.thehopbine.co.uk/",
      "phone": "01223 367204",
      "position": {
        "lat": 51.51711,
        "lon": 0.12055
      }
    },
    "HollandPark": {
      "title": "Holland Park",
      "address": "11-12 Fair St, Cambridge, CB1 1HA",
      "website": "http://www.thehopbine.co.uk/",
      "phone": "01223 367204",
      "position": {
        "lat": 51.50722,
        "lon": -0.20553
      }
    },
    "HollowayRoad": {
      "title": "Holloway Road",
      "address": "11-12 Fair St, Cambridge, CB1 1HA",
      "website": "http://www.thehopbine.co.uk/",
      "phone": "01223 367204",
      "position": {
        "lat": 51.55290,
        "lon": 0.11278
      }
    },
    "Hornchurch": {
      "title": "Hornchurch",
      "address": "11-12 Fair St, Cambridge, CB1 1HA",
      "website": "http://www.thehopbine.co.uk/",
      "phone": "01223 367204",
      "position": {
        "lat": 51.55387,
        "lon": 0.21797
      }
    },
"HunslowCentral": {
      "title": "Hunslow Central",
      "address": "54 High St, Cambridge CB4 1NG",
      "website": "https://www.facebook.com/cambridgehaymakers",
      "phone": "01223 311077",
      "position": {
        "lat": 51.471290,
        "lon": 0.365853
      }
    },"HunslowWest": {
      "title": "Hunslow West",
      "address": "54 High St, Cambridge CB4 1NG",
      "website": "https://www.facebook.com/cambridgehaymakers",
      "phone": "01223 311077",
      "position": {
        "lat": 51.4715,
        "lon": 0.386471
      }
    },"HunslowEast": {
      "title": "Hunslow East",
      "address": "54 High St, Cambridge CB4 1NG",
      "website": "https://www.facebook.com/cambridgehaymakers",
      "phone": "01223 311077",
      "position": {
        "lat": 51.473540,
        "lon": 0.356000
      }
    },
    "HydeParkCorner": {
      "title": "Hyde Park Corner",
      "address": "54 High St, Cambridge CB4 1NG",
      "website": "https://www.facebook.com/cambridgehaymakers",
      "phone": "01223 311077",
      "position": {
        "lat": 51.50313,
        "lon": -0.15278
      }
    },
    "Ickenham": {
      "title": "Ickenham",
      "address": "St Kilda Ave, Cambridge, CB4 2QA",
      "position": {
        "lat": 51.56147,
        "lon": -0.44257
      }
    },
    "Kennington": {
      "title": "Kennington",
      "address": "St Kilda Ave, Cambridge, CB4 2QA",
      "position": {
        "lat": 51.48823,
        "lon": -0.10587
      }
    },
    "KensalGreen": {
      "title": "Kensal Green",
      "address": "St Kilda Ave, Cambridge, CB4 2QA",
      "position": {
        "lat": 51.53060655,
        "lon": -0.224253545
      }
    },
    "KentishTown": {
      "title": "Kentish Town",
      "address": "St Kilda Ave, Cambridge, CB4 2QA",
      "position": {
        "lat": 51.53060655,
        "lon": -0.224253545
      }
    },
    "Kenton": {
      "title": "Kentish Town West",
      "address": "St Kilda Ave, Cambridge, CB4 2QA",
      "position": {
        "lat": 51.58173809,
        "lon": -0.316870809
      }
    },
    "KewGardens": {
      "title": "Kew Gardens",
      "address": "St Kilda Ave, Cambridge, CB4 2QA",
      "position": {
        "lat": 51.58173809,
        "lon": -0.316870809
      }
    },
    "Kilburn": {
      "title": "Kilburn",
      "address": "St Kilda Ave, Cambridge, CB4 2QA",
      "position": {
        "lat": 51.5471715,
        "lon": -0.2050020
      }
    },
    "KilburnPark": {
      "title": "Kilburn Park",
      "address": "St Kilda Ave, Cambridge, CB4 2QA",
      "position": {
        "lat": 51.53495818,
        "lon": -0.193963023
      }
    },
    "KingsCrossStPancras": {
      "title": "King's Cross St. Pancras",
      "address": "50 High St, Fen Ditton, Cambridge CB5 8ST",
      "phone": "01223 293861",
      "position": {
        "lat": 51.53057,
        "lon": 0.12399
      }
    },
    "Kingsbury": {
      "title": "Kingsbury",
      "address": "50 High St, Fen Ditton, Cambridge CB5 8ST",
      "phone": "01223 293861",
      "position": {
        "lat": 51.58422,
        "lon": -0.27880
      }
    },
    "Knightsbridge": {
      "title": "Knightsbridge",
      "address": "86 King St, Cambridge CB1 1LN",
      "phone": "01223 328900",
      "position": {
        "lat": 51.50169,
        "lon": 0.16030
      }
    },
    "LadbrokeGrove": {
      "title": "Ladbroke Grove",
      "address": "40 Mawson Rd, Cambridge, CB1 2EA",
      "phone": "01223 460261",
      "position": {
        "lat": 51.517300,
        "lon": -0.211140
      }
    },
    "LambethNorth": {
      "title": "Lambeth North",
      "address": "40 Mawson Rd, Cambridge, CB1 2EA",
      "phone": "01223 460261",
      "position": {
        "lat": 51.49894,
        "lon": -0.11216
      }
    },
    "LancasterGate": {
      "title": "Lancaster Gate",
      "address": "40 Mawson Rd, Cambridge, CB1 2EA",
      "phone": "01223 460261",
      "position": {
        "lat": 51.512083,
        "lon": -0.175067
      }
    },
    "LatimerRoad": {
      "title": "Latimer Road",
      "address": "40 Mawson Rd, Cambridge, CB1 2EA",
      "phone": "01223 460261",
      "position": {
        "lat": 51.513125,
        "lon": -0.218428
      }
    },
    "LeicesterSquare": {
      "title": "Leicester Square",
      "address": "40 Mawson Rd, Cambridge, CB1 2EA",
      "phone": "01223 460261",
      "position": {
        "lat": 51.51148,
        "lon": 0.12849
      }
    },

    "Leyton": {
      "title": "Leyton",
      "address": "22 Church Ln, Trumpington, Cambridge CB2 9LA",
      "website": "http://www.lordbyroninn.co.uk/",
      "phone": "01223 845102",
      "position": {
        "lat": 51.556483,
        "lon": -0.005669
      }
    },
    "LeytonStone": {
      "title": "Leytonstone",
      "address": "22 Church Ln, Trumpington, Cambridge CB2 9LA",
      "website": "http://www.lordbyroninn.co.uk/",
      "phone": "01223 845102",
      "position": {
        "lat": 51.56828,
        "lon": 0.00739
      }
    },
    "LiverpoolStreet": {
      "title": "Liverpool Street",
      "address": "22 Church Ln, Trumpington, Cambridge CB2 9LA",
      "website": "http://www.lordbyroninn.co.uk/",
      "phone": "01223 845102",
      "position": {
        "lat": 51.517675,
        "lon": -0.0824580
      }
    },
    "LondonBridge": {
      "title": "London Bridge",
      "address": "22 Church Ln, Trumpington, Cambridge CB2 9LA",
      "website": "http://www.lordbyroninn.co.uk/",
      "phone": "01223 845102",
      "position": {
        "lat": 51.505353,
        "lon": -0.084826
      }
    },
    "Loughton": {
      "title": "Loughton",
      "address": "22 Church Ln, Trumpington, Cambridge CB2 9LA",
      "website": "http://www.lordbyroninn.co.uk/",
      "phone": "01223 845102",
      "position": {
        "lat": 51.64170,
        "lon": 0.05583
      }
    },
    "MaidaVale": {
      "title": "Maida Vale",
      "address": "20A Portugal Pl, Cambridge CB5 8AF",
      "website": "http://www.maypolefreehouse.co.uk/",
      "phone": "01223 352999",
      "position": {
        "lat": 51.52989409,
        "lon": -0.185888819
      }
    },
    "ManorHouse": {
      "title": "Manor House",
      "address": "20A Portugal Pl, Cambridge CB5 8AF",
      "website": "http://www.maypolefreehouse.co.uk/",
      "phone": "01223 352999",
      "position": {
        "lat": 51.57038,
        "lon": 0.09601
      }
    },
    "MansionHouse": {
      "title": "Mansion House",
      "address": "20A Portugal Pl, Cambridge CB5 8AF",
      "website": "http://www.maypolefreehouse.co.uk/",
      "phone": "01223 352999",
      "position": {
        "lat": 51.51256,
        "lon": -0.09397
      }
    },
    "MarbleArch": {
      "title": "MarbleArch",
      "address": "20A Portugal Pl, Cambridge CB5 8AF",
      "website": "http://www.maypolefreehouse.co.uk/",
      "phone": "01223 352999",
      "position": {
        "lat": 52.209671,
        "lon": 0.119232
      }
    },
    "Marylebone": {
      "title": "Marylebone",
      "address": "20A Portugal Pl, Cambridge CB5 8AF",
      "website": "http://www.maypolefreehouse.co.uk/",
      "phone": "01223 352999",
      "position": {
        "lat": 51.522660,
        "lon": -0.162996
      }
    },
    "MileEnd": {
      "title": "Mile End",
      "address": "20A Portugal Pl, Cambridge CB5 8AF",
      "website": "http://www.maypolefreehouse.co.uk/",
      "phone": "01223 352999",
      "position": {
        "lat": 51.522660,
        "lon": -0.162996
      }
    },
    "MillHillEast": {
      "title": "MillHillEast",
      "address": "20A Portugal Pl, Cambridge CB5 8AF",
      "website": "http://www.maypolefreehouse.co.uk/",
      "phone": "01223 352999",
      "position": {
        "lat": 51.60892,
        "lon": -0.20965
      }
    },
    "Monument": {
      "title": "Monument",
      "address": "20A Portugal Pl, Cambridge CB5 8AF",
      "website": "http://www.maypolefreehouse.co.uk/",
      "phone": "01223 352999",
      "position": {
        "lat": 51.510165,
        "lon": -0.085991
      }
    },
    "MoorPark": {
      "title": "MoorPark",
      "address": "20A Portugal Pl, Cambridge CB5 8AF",
      "website": "http://www.maypolefreehouse.co.uk/",
      "phone": "01223 352999",
      "position": {
        "lat": 51.510165,
        "lon": -0.085991
      }
    },
    "Moorgate": {
      "title": "Moorgate",
      "address": "20A Portugal Pl, Cambridge CB5 8AF",
      "website": "http://www.maypolefreehouse.co.uk/",
      "phone": "01223 352999",
      "position": {
        "lat": 51.51817,
        "lon": -0.08859
      }
    },
    "Morden": {
      "title": "Morden",
      "address": "Perne Rd, Cambridge, CB1 3RX",
      "phone": "01223 240808",
      "position": {
        "lat": 51.40222413,
        "lon": -0.194599126
      }
    },
    "MorningtonCrescent": {
      "title": "Mornington Crescent",
      "address": "14 Mill Ln, Cambridge CB2 1RX",
      "website": "http://www.themillpubcambridge.com/",
      "phone": "01223 311829",
      "position": {
        "lat": 52.201552,
        "lon": 0.116128
      }
    },
    "Neasden": {
      "title": "Neasden",
      "address": "17 Bridge St, Cambridge CB2 1UF",
      "website": "http://www.nicholsonspubs.co.uk/restaurants/eastofengland/themitrecambridge",
      "phone": "01223 358403",
      "position": {
        "lat": 51.55427,
        "lon": -0.25042
      }
    },
    "NewburyPark": {
      "title": "Newbury Park",
      "address": "17 Bridge St, Cambridge CB2 1UF",
      "website": "http://www.nicholsonspubs.co.uk/restaurants/eastofengland/themitrecambridge",
      "phone": "01223 358403",
      "position": {
        "lat": 51.57565,
        "lon": 0.08927
      }
    },
    "NorthActon": {
      "title": "Northfields",
      "address": "17 Bridge St, Cambridge CB2 1UF",
      "website": "http://www.nicholsonspubs.co.uk/restaurants/eastofengland/themitrecambridge",
      "phone": "01223 358403",
      "position": {
        "lat": 51.52370,
        "lon": -0.26019
      }
    },
    "NorthEaling": {
      "title": "NorthEaling",
      "address": "17 Bridge St, Cambridge CB2 1UF",
      "website": "http://www.nicholsonspubs.co.uk/restaurants/eastofengland/themitrecambridge",
      "phone": "01223 358403",
      "position": {
        "lat": 51.51807,
        "lon": -0.26019
      }
    },
    "NorthGreenwich": {
      "title": "North Greenwich",
      "address": "17 Bridge St, Cambridge CB2 1UF",
      "website": "http://www.nicholsonspubs.co.uk/restaurants/eastofengland/themitrecambridge",
      "phone": "01223 358403",
      "position": {
        "lat": 51.50056,
        "lon": 0.00360
      }
    },
    "NorthHarrow": {
      "title": "NorthHarrow",
      "address": "17 Bridge St, Cambridge CB2 1UF",
      "website": "http://www.nicholsonspubs.co.uk/restaurants/eastofengland/themitrecambridge",
      "phone": "01223 358403",
      "position": {
        "lat": 51.58503612,
        "lon": -0.362595264
      }
    },
    "NorthWembley": {
      "title": "NorthHarrow",
      "address": "17 Bridge St, Cambridge CB2 1UF",
      "website": "http://www.nicholsonspubs.co.uk/restaurants/eastofengland/themitrecambridge",
      "phone": "01223 358403",
      "position": {
        "lat": 51.56258091,
        "lon": -0.304072648
      }
    },
    "Northfields": {
      "title": "Northfields",
      "address": "17 Bridge St, Cambridge CB2 1UF",
      "website": "http://www.nicholsonspubs.co.uk/restaurants/eastofengland/themitrecambridge",
      "phone": "01223 358403",
      "position": {
        "lat": 52.208852,
        "lon": 0.118185
      }
    },
    "Northholt": {
      "title": "Northholt",
      "address": "17 Bridge St, Cambridge CB2 1UF",
      "website": "http://www.nicholsonspubs.co.uk/restaurants/eastofengland/themitrecambridge",
      "phone": "01223 358403",
      "position": {
        "lat": 51.548054,
        "lon": -0.368257
      }
    },
    "NorthwickPark": {
      "title": "Northwick Park",
      "address": "17 Bridge St, Cambridge CB2 1UF",
      "website": "http://www.nicholsonspubs.co.uk/restaurants/eastofengland/themitrecambridge",
      "phone": "01223 358403",
      "position": {
        "lat": 51.548054,
        "lon": -0.368257
      }
    },
    "Northwood": {
      "title": "Northwick Park",
      "address": "17 Bridge St, Cambridge CB2 1UF",
      "website": "http://www.nicholsonspubs.co.uk/restaurants/eastofengland/themitrecambridge",
      "phone": "01223 358403",
      "position": {
        "lat": 51.61098984,
        "lon": -0.423584422
      }
    },
    "NorthwoodHills": {
      "title": "Northwood Hills",
      "address": "17 Bridge St, Cambridge CB2 1UF",
      "website": "http://www.nicholsonspubs.co.uk/restaurants/eastofengland/themitrecambridge",
      "phone": "01223 358403",
      "position": {
        "lat": 51.60043795,
        "lon": -0.408812575
      }
    },
    "NottingHillGate": {
      "title": "Notting Hill Gate",
      "address": "17 Bridge St, Cambridge CB2 1UF",
      "website": "http://www.nicholsonspubs.co.uk/restaurants/eastofengland/themitrecambridge",
      "phone": "01223 358403",
      "position": {
        "lat": 51.509028,
        "lon": -0.1962847
      }
    },
    "Oakwood": {
      "title": "Oakwood",
      "address": "17 Bridge St, Cambridge CB2 1UF",
      "website": "http://www.nicholsonspubs.co.uk/restaurants/eastofengland/themitrecambridge",
      "phone": "01223 358403",
      "position": {
        "lat": 51.64739,
        "lon": 0.13192
      }
    },
    "OldStreet": {
      "title": "Old Street",
      "address": "1 Ferry Path, Cambridge CB4 1HB",
      "website": "http://www.theoldspring.co.uk/",
      "phone": "01223 357228",
      "position": {
        "lat": 51.52618,
        "lon": -0.08751
      }
    },
    "Osterly": {
      "title": "Osterly",
      "address": "1 Ferry Path, Cambridge CB4 1HB",
      "website": "http://www.theoldspring.co.uk/",
      "phone": "01223 357228",
      "position": {
        "lat": 51.481569,
        "lon": 0.351960
      }
    },
    "Oval": {
      "title": "Oval",
      "address": "1 Ferry Path, Cambridge CB4 1HB",
      "website": "http://www.theoldspring.co.uk/",
      "phone": "01223 357228",
      "position": {
        "lat": 51.48214,
        "lon": -0.11284
      }
    },
    "OxfordCircus": {
      "title": "Oval",
      "address": "1 Ferry Path, Cambridge CB4 1HB",
      "website": "http://www.theoldspring.co.uk/",
      "phone": "01223 357228",
      "position": {
        "lat": 51.51517,
        "lon": -0.14119
      }
    },
    "Paddington": {
      "title": "Paddington",
      "address": "43 Panton St, Cambridge CB2 1HL",
      "phone": "01223 464351",
      "position": {
        "lat": 51.5151846554,
        "lon": -0.17553880792
      }
    },
    "ParkRoyal": {
      "title": "Paddington",
      "address": "43 Panton St, Cambridge CB2 1HL",
      "phone": "01223 464351",
      "position": {
        "lat": 51.52671,
        "lon": -0.28417
      }
    },
    "ParsonsGreen": {
      "title": "Parsons Green",
      "address": "43 Panton St, Cambridge CB2 1HL",
      "phone": "01223 464351",
      "position": {
        "lat": 51.47488,
        "lon": -0.20205
      }
    },
    "Perivale": {
      "title": "Parsons Green",
      "address": "43 Panton St, Cambridge CB2 1HL",
      "phone": "01223 464351",
      "position": {
        "lat": 51.536673,
        "lon": -0.32391
      }
    },
    "PiccadillyCircus": {
      "title": "Piccadilly Circus",
      "address": "30 Magdalene St, Cambridge CB3 0AF",
      "website": "http://www.taylor-walker.co.uk/pub/pickerel-cambridge",
      "phone": "01223 355068",
      "position": {
        "lat": 51.51022,
        "lon": 0.13392
      }
    },
    "Pimlico": {
      "title": "Pimlico",
      "address": "30 Magdalene St, Cambridge CB3 0AF",
      "website": "http://www.taylor-walker.co.uk/pub/pickerel-cambridge",
      "phone": "01223 355068",
      "position": {
        "lat": 51.489081,
        "lon": -0.133037
      }
    },
    "Pinner": {
      "title": "Pinner",
      "address": "30 Magdalene St, Cambridge CB3 0AF",
      "website": "http://www.taylor-walker.co.uk/pub/pickerel-cambridge",
      "phone": "01223 355068",
      "position": {
        "lat": 51.59270271,
        "lon": -0.380539158
      }
    },
    "Plaistow": {
      "title": "Plaistow",
      "address": "30 Magdalene St, Cambridge CB3 0AF",
      "website": "http://www.taylor-walker.co.uk/pub/pickerel-cambridge",
      "phone": "01223 355068",
      "position": {
        "lat": 51.53122,
        "lon": 0.01659
      }
    },
    "PrestonRoad": {
      "title": "Preston Road",
      "address": "30 Magdalene St, Cambridge CB3 0AF",
      "website": "http://www.taylor-walker.co.uk/pub/pickerel-cambridge",
      "phone": "01223 355068",
      "position": {
        "lat": 51.57229051,
        "lon": -0.295813875
      }
    },
    "PutneyBridge": {
      "title": "Putney Bridge",
      "place_id": "ChIJIwqxlbhw2EcRQYT52kWYXhQ",
      "address": "3 Pound Hill, Cambridge CB3 0AE",
      "website": "http://www.thepuntercambridge.com/",
      "phone": "01223 363322",
      "position": {
        "lat": 51.46868,
        "lon": -0.2088141
      }
    },
    "QueensPark": {
      "title": "Queens Park",
      "address": "Wulfstan Way, Cambridge, CB1 8QN",
      "website": "https://www.individualpubs.co.uk/queenedith/",
      "phone": "01223 244536",
      "position": {
        "lat": 51.534179,
        "lon": -0.205257721
      }
    },
    "Queensbury": {
      "title": "Queensbury",
      "address": "Wulfstan Way, Cambridge, CB1 8QN",
      "website": "https://www.individualpubs.co.uk/queenedith/",
      "phone": "01223 244536",
      "position": {
        "lat": 51.59437,
        "lon": -0.28655
      }
    },
    "Queensway": {
      "title": "Queensway",
      "address": "Wulfstan Way, Cambridge, CB1 8QN",
      "website": "https://www.individualpubs.co.uk/queenedith/",
      "phone": "01223 244536",
      "position": {
        "lat": 51.510484,
        "lon": -0.187050
      }
    },
    "RavenscourtPark": {
      "title": "Ravenscourt Park",
      "address": "11 Barton Rd, Newnham, Cambridge CB3 9JZ",
      "phone": "01223 300943",
      "position": {
        "lat": 51.494190,
        "lon": -0.235600
      }
    },
    "RaynersLane": {
      "title": "Rayners Lane",
      "address": "33 High St, Grantchester, Cambridge CB3 9NF",
      "website": "http://www.redliongrantchester.co.uk/",
      "phone": "01223 840121",
      "position": {
        "lat": 51.57534,
        "lon": -0.37240
      }
    },
    "Redbridge": {
      "title": "Redbridge",
      "address": "38-39 St Andrew's St, Cambridge, Cambridgeshire CB2 3AR",
      "website": "https://www.jdwetherspoon.com/pubs/all-pubs/england/cambridgeshire/the-regal-cambridge",
      "phone": "01223 366459",
      "position": {
        "lat": 51.57618,
        "lon": 0.04542
      }
    },
    "RegentsPark": {
      "title": "RegentsPark",
      "address": "38-39 St Andrew's St, Cambridge, Cambridgeshire CB2 3AR",
      "website": "https://www.jdwetherspoon.com/pubs/all-pubs/england/cambridgeshire/the-regal-cambridge",
      "phone": "01223 366459",
      "position": {
        "lat": 51.52344,
        "lon": -0.14713
      }
    },
    "Richmond": {
      "title": "Richmond",
      "address": "200 Cherry Hinton Rd, Cambridge CB1 7AW",
      "website": "http://www.rock-cambridge.co.uk/",
      "phone": "01223 505005",
      "position": {
        "lat": 51.46343247,
        "lon": -0.302033247
      }
    },
    "Rickmansworth": {
      "title": "Rickmansworth",
      "address": "200 Cherry Hinton Rd, Cambridge CB1 7AW",
      "website": "http://www.rock-cambridge.co.uk/",
      "phone": "01223 505005",
      "position": {
        "lat": 51.64027898,
        "lon": -0.473521454
      }
    },
    "RodingValley": {
      "title": "RodingValley",
      "address": "292 Mill Rd, Cambridge CB1 3NL",
      "website": "http://royalstandardcambridge.com/",
      "phone": "01223 569065",
      "position": {
        "lat": 51.61691,
        "lon": 0.04264
      }
    },
    "RoyalOak": {
      "title": "RoyalOak",
      "address": "292 Mill Rd, Cambridge CB1 3NL",
      "website": "http://royalstandardcambridge.com/",
      "phone": "01223 569065",
      "position": {
        "lat": 51.519383,
        "lon": -0.187785
      }
    },
    "Ruislip": {
      "title": "Ruislip",
      "address": "2 Broadway, Grantchester CB3 9NQ",
      "website": "http://www.therupertbrooke.com/",
      "phone": "01223 841875",
      "position": {
        "lat": 51.57146,
        "lon": -0.42157
      }
    },
    "RuislipGardens": {
      "title": "Ruislip Gardens",
      "address": "2 Broadway, Grantchester CB3 9NQ",
      "website": "http://www.therupertbrooke.com/",
      "phone": "01223 841875",
      "position": {
        "lat": 51.560711,
        "lon": -0.410587
      }
    },
    "RuislipManor": {
      "title": "Ruislip Manor",
      "address": "2 Broadway, Grantchester CB3 9NQ",
      "website": "http://www.therupertbrooke.com/",
      "phone": "01223 841875",
      "position": {
        "lat": 51.57349,
        "lon": -0.41185
      }
    },
    "RussellSquare": {
      "title": "Russell Square",
      "address": "2 Broadway, Grantchester CB3 9NQ",
      "website": "http://www.therupertbrooke.com/",
      "phone": "01223 841875",
      "position": {
        "lat": 51.523243,
        "lon": 0.124336
      }
    },
    "StJamessPark": {
      "title": "St. James's Park",
      "address": "76 Tenison Rd, Cambridge, CB1 2DW",
      "website": "http://www.salisburyarmscambridge.co.uk/",
      "phone": "01223 576363",
      "position": {
        "lat": 51.49971,
        "lon": -0.13394
      }
    },
    "SevenSisters": {
      "title": "Seven Sisters",
      "address": "76 Tenison Rd, Cambridge, CB1 2DW",
      "website": "http://www.salisburyarmscambridge.co.uk/",
      "phone": "01223 576363",
      "position": {
        "lat": 51.58318,
        "lon": -0.07495
      }
    },
    "ShepardsBush": {
      "title": "Shepard's Bush",
      "address": "84 Castle St, Cambridge CB3 0AJ",
      "website": "http://www.sirisaacnewton-cambridge.co.uk/",
      "phone": "01223 305555",
      "position": {
        "lat": 51.50474,
        "lon": -0.21881
      }
    },
    "ShepardsBushMarket": {
      "title": "Shepard's Bush Market",
      "address": "84 Castle St, Cambridge CB3 0AJ",
      "website": "http://www.sirisaacnewton-cambridge.co.uk/",
      "phone": "01223 305555",
      "position": {
        "lat": 51.506063,
        "lon": -0.226231
      }
    },
    "SloaneSquare": {
      "title": "SloaneSquare",
      "address": "11 Covent Garden, Cambridge CB1 2HS",
      "website": "http://sixbellspub.co.uk/",
      "phone": "01223 355559",
      "position": {
        "lat": 51.49258474,
        "lon": -0.156090904
      }
    },
    "Snaresbrook": {
      "title": "Snaresbrook",
      "address": "11 Covent Garden, Cambridge CB1 2HS",
      "website": "http://sixbellspub.co.uk/",
      "phone": "01223 355559",
      "position": {
        "lat": 51.58002,
        "lon": 0.02133
      }
    },
    "SouthEaling": {
      "title": "South Ealing",
      "address": "11 Covent Garden, Cambridge CB1 2HS",
      "website": "http://sixbellspub.co.uk/",
      "phone": "01223 355559",
      "position": {
        "lat": 51.500801,
        "lon": 0.307856
      }
    },
    "SouthHarrow": {
      "title": "South Harrow",
      "address": "11 Covent Garden, Cambridge CB1 2HS",
      "website": "http://sixbellspub.co.uk/",
      "phone": "01223 355559",
      "position": {
        "lat": 51.56461,
        "lon": -0.35210
      }
    },
    "SouthKensington": {
      "title": "South Ealing",
      "address": "11 Covent Garden, Cambridge CB1 2HS",
      "website": "http://sixbellspub.co.uk/",
      "phone": "01223 355559",
      "position": {
        "lat": 51.494066,
        "lon": 0.172791
      }
    },"SouthKenton": {
      "title": "South Kenton",
      "address": "11 Covent Garden, Cambridge CB1 2HS",
      "website": "http://sixbellspub.co.uk/",
      "phone": "01223 355559",
      "position": {
        "lat": 51.57044666,
        "lon": -0.308566354
      }
    },
    "SouthRuislip": {
      "title": "South Ruislip",
      "address": "11 Covent Garden, Cambridge CB1 2HS",
      "website": "http://sixbellspub.co.uk/",
      "phone": "01223 355559",
      "position": {
        "lat": 51.556795,
        "lon": -0.398708
      }
    },
    "SouthWimbledon": {
      "title": "South Wimbledon",
      "address": "11 Covent Garden, Cambridge CB1 2HS",
      "website": "http://sixbellspub.co.uk/",
      "phone": "01223 355559",
      "position": {
        "lat": 51.41543048,
        "lon": -0.192262754
      }
    },
    "SouthWoodford": {
      "title": "South Woodford",
      "address": "11 Covent Garden, Cambridge CB1 2HS",
      "website": "http://sixbellspub.co.uk/",
      "phone": "01223 355559",
      "position": {
        "lat": 51.59088,
        "lon": 0.02726
      }
    },
    "Southfields": {
      "title": "Southfields",
      "address": "11 Covent Garden, Cambridge CB1 2HS",
      "website": "http://sixbellspub.co.uk/",
      "phone": "01223 355559",
      "position": {
        "lat": 51.444941,
        "lon": -0.206466
      }
    },
    "SouthGate": {
      "title": "South Gate",
      "address": "11 Covent Garden, Cambridge CB1 2HS",
      "website": "http://sixbellspub.co.uk/",
      "phone": "01223 355559",
      "position": {
        "lat": 51.63240,
        "lon": 0.12765
      }
    },

    "Southwark": {
      "title": "Southwark",
      "address": "129 King St, Cambridge, CB1 1LD",
      "phone": "01223 311794",
      "position": {
        "lat": 51.50384,
        "lon": -0.10478
      }
    },
    "StJohnsWood": {
      "title": "St. Johns Wood",
      "address": "129 King St, Cambridge, CB1 1LD",
      "phone": "01223 311794",
      "position": {
        "lat": 51.53472,
        "lon": -0.17428
      }
    },
    "StPauls": {
      "title": "St. Paul's",
      "address": "129 King St, Cambridge, CB1 1LD",
      "phone": "01223 311794",
      "position": {
        "lat": 51.515285,
        "lon": -0.097598
      }
    },
    "StamfordBrook": {
      "title": "Stamford Brook",
      "address": "129 King St, Cambridge, CB1 1LD",
      "phone": "01223 311794",
      "position": {
        "lat": 51.494935,
        "lon": -0.246190
      }
    },
    "Stanmore": {
      "title": "Stanmore",
      "address": "129 King St, Cambridge, CB1 1LD",
      "phone": "01223 311794",
      "position": {
        "lat": 51.61895,
        "lon": -0.30241
      }
    },
    "StepneyGreen": {
      "title": "Stepney Green",
      "address": "129 King St, Cambridge, CB1 1LD",
      "phone": "01223 311794",
      "position": {
        "lat": 51.521884,
        "lon": -0.046546
      }
    },
    "Stockwell": {
      "title": "Stockwell",
      "address": "129 King St, Cambridge, CB1 1LD",
      "phone": "01223 311794",
      "position": {
        "lat": 51.47224,
        "lon": -0.12270
      }
    },
    "StonebridgePark": {
      "title": "Stonebridge Park",
      "address": "129 King St, Cambridge, CB1 1LD",
      "phone": "01223 311794",
      "position": {
        "lat": 51.54402388,
        "lon": -0.275978856
      }
    },
    "Stratford": {
      "title": "Stratford",
      "address": "129 King St, Cambridge, CB1 1LD",
      "phone": "01223 311794",
      "position": {
        "lat": 51.541208,
        "lon": -0.003776
      }
    },
    "SudburyHill": {
      "title": "SudburyHill",
      "address": "129 King St, Cambridge, CB1 1LD",
      "phone": "01223 311794",
      "position": {
        "lat": 51.556998,
        "lon": -0.335949
      }
    },
    "SudburyTown": {
      "title": "Sudbury Town",
      "address": "129 King St, Cambridge, CB1 1LD",
      "phone": "01223 311794",
      "position": {
        "lat": 51.55093,
        "lon": -0.31598
      }
    },
    "SwissCottage": {
      "title": "Swiss Cottage",
      "address": "129 King St, Cambridge, CB1 1LD",
      "phone": "01223 311794",
      "position": {
        "lat": 51.54333,
        "lon": -0.17436
      }
    },
    "Temple": {
      "title": "Temple",
      "address": "3-5 Dover St, Cambridge CB1 1DY",
      "website": "https://sites.google.com/site/tramdepotcambs/",
      "phone": "01223 324553",
      "position": {
        "lat": 51.51114,
        "lon": -0.11341
      }
    },
    "TheydonBois": {
      "title": "Theydon Bois",
      "address": "3-5 Dover St, Cambridge CB1 1DY",
      "website": "https://sites.google.com/site/tramdepotcambs/",
      "phone": "01223 324553",
      "position": {
        "lat": 51.67246,
        "lon": 0.10354
      }
    },
    "TootingBec": {
      "title": "Tooting Bec",
      "address": "3-5 Dover St, Cambridge CB1 1DY",
      "website": "https://sites.google.com/site/tramdepotcambs/",
      "phone": "01223 324553",
      "position": {
        "lat": 51.43578971,
        "lon": -0.159635693
      }
    },
    "TootingBroadway": {
      "title": "Tooting Broadway",
      "address": "3-5 Dover St, Cambridge CB1 1DY",
      "website": "https://sites.google.com/site/tramdepotcambs/",
      "phone": "01223 324553",
      "position": {
        "lat": 51.42780008,
        "lon": -0.167910811
      }
    },
    "TottenhamCourtRoad": {
      "title": "Tottenham Court Road",
      "address": "3-5 Dover St, Cambridge CB1 1DY",
      "website": "https://sites.google.com/site/tramdepotcambs/",
      "phone": "01223 324553",
      "position": {
        "lat": 51.51640,
        "lon": -0.13027
      }
    },
    "TottenhamHale": {
      "title": "Tottenham Hale",
      "address": "3-5 Dover St, Cambridge CB1 1DY",
      "website": "https://sites.google.com/site/tramdepotcambs/",
      "phone": "01223 324553",
      "position": {
        "lat": 51.588878,
        "lon": -0.059808
      }
    },
    "Totteridge&Whetstone": {
      "title": "Totteridge & Whetstone",
      "address": "3-5 Dover St, Cambridge CB1 1DY",
      "website": "https://sites.google.com/site/tramdepotcambs/",
      "phone": "01223 324553",
      "position": {
        "lat": 51.63022,
        "lon": -0.17917
      }
    },
    "TowerHill": {
      "title": "TowerHille",
      "address": "3-5 Dover St, Cambridge CB1 1DY",
      "website": "https://sites.google.com/site/tramdepotcambs/",
      "phone": "01223 324553",
      "position": {
        "lat": 51.509910,
        "lon": -0.076813
      }
    },
    "TufnellPark": {
      "title": "TowerHille",
      "address": "3-5 Dover St, Cambridge CB1 1DY",
      "website": "https://sites.google.com/site/tramdepotcambs/",
      "phone": "01223 324553",
      "position": {
        "lat": 51.55663,
        "lon": -0.13813
      }
    },
    "TurnhamGreen": {
      "title": "Turnham Green",
      "address": "3-5 Dover St, Cambridge CB1 1DY",
      "website": "https://sites.google.com/site/tramdepotcambs/",
      "phone": "01223 324553",
      "position": {
        "lat": 51.495143,
        "lon": 0.254060
      }
    },
    "TurnpikeLane": {
      "title": "Turnpike Lane",
      "address": "3-5 Dover St, Cambridge CB1 1DY",
      "website": "https://sites.google.com/site/tramdepotcambs/",
      "phone": "01223 324553",
      "position": {
        "lat": 51.59031,
        "lon": 0.10308
      }
    },

    "Upminster": {
      "title": "Upminster",
      "address": "3-5 Dover St, Cambridge CB1 1DY",
      "website": "https://sites.google.com/site/tramdepotcambs/",
      "phone": "01223 324553",
      "position": {
        "lat": 51.55925,
        "lon": 0.25177
      }
    },
    "UpminsterBridge": {
      "title": "UpminsterBridge",
      "address": "3-5 Dover St, Cambridge CB1 1DY",
      "website": "https://sites.google.com/site/tramdepotcambs/",
      "phone": "01223 324553",
      "position": {
        "lat": 51.55847,
        "lon": 0.23509
      }
    },
    "Upney": {
      "title": "Upney",
      "address": "3-5 Dover St, Cambridge CB1 1DY",
      "website": "https://sites.google.com/site/tramdepotcambs/",
      "phone": "01223 324553",
      "position": {
        "lat": 51.55847,
        "lon": 0.23509
      }
    },
    "UptonPark": {
      "title": "UptonPark",
      "address": "3-5 Dover St, Cambridge CB1 1DY",
      "website": "https://sites.google.com/site/tramdepotcambs/",
      "phone": "01223 324553",
      "position": {
        "lat": 51.53514,
        "lon": 0.03373
      }
    },
    "Uxbridge": {
      "title": "Uxbridge",
      "address": "3-5 Dover St, Cambridge CB1 1DY",
      "website": "https://sites.google.com/site/tramdepotcambs/",
      "phone": "01223 324553",
      "position": {
        "lat": 51.54687,
        "lon": -0.47725
      }
    },
    "Vauxhall": {
      "title": "Vauxhall",
      "address": "3-5 Dover St, Cambridge CB1 1DY",
      "website": "https://sites.google.com/site/tramdepotcambs/",
      "phone": "01223 324553",
      "position": {
        "lat": 51.54687,
        "lon": -0.47725
      }
    },
    "Victoria": {
      "title": "Victoria",
      "address": "3-5 Dover St, Cambridge CB1 1DY",
      "website": "https://sites.google.com/site/tramdepotcambs/",
      "phone": "01223 324553",
      "position": {
        "lat": 51.54687,
        "lon": -0.47725
      }
    },
    "WalthamstowCentral": {
      "title": "Walthamstow Central",
      "address": "32 Chesterton Rd, Cambridge CB4 3AX",
      "website": "http://www.thewaterman-cambridge.co.uk/",
      "phone": "01223 323813",
      "position": {
        "lat": 51.58293,
        "lon": -0.01996
      }
    },
    "Wanstead": {
      "title": "Wanstead",
      "address": "32 Chesterton Rd, Cambridge CB4 3AX",
      "website": "http://www.thewaterman-cambridge.co.uk/",
      "phone": "01223 323813",
      "position": {
        "lat": 51.57565,
        "lon": 0.02864
      }
    },
    "WarrenStreet": {
      "title": "Warren Street",
      "address": "32 Chesterton Rd, Cambridge CB4 3AX",
      "website": "http://www.thewaterman-cambridge.co.uk/",
      "phone": "01223 323813",
      "position": {
        "lat": 51.52450,
        "lon": -0.13810
      }
    },
    "WarwickAvenue": {
      "title": "Warwick Avenue",
      "address": "32 Chesterton Rd, Cambridge CB4 3AX",
      "website": "http://www.thewaterman-cambridge.co.uk/",
      "phone": "01223 323813",
      "position": {
        "lat": 51.52329728,
        "lon": -0.183777837
      }
    },
    "Waterloo": {
      "title": "Waterloo",
      "address": "32 Chesterton Rd, Cambridge CB4 3AX",
      "website": "http://www.thewaterman-cambridge.co.uk/",
      "phone": "01223 323813",
      "position": {
        "lat": 51.50322,
        "lon": -0.11328
      }
    },
    "Watford": {
      "title": "Watford",
      "address": "32 Chesterton Rd, Cambridge CB4 3AX",
      "website": "http://www.thewaterman-cambridge.co.uk/",
      "phone": "01223 323813",
      "position": {
        "lat": 51.65741058,
        "lon": -0.41745306
      }
    },
    "WembleyCentral": {
      "title": "Wembley Central",
      "address": "32 Chesterton Rd, Cambridge CB4 3AX",
      "website": "http://www.thewaterman-cambridge.co.uk/",
      "phone": "01223 323813",
      "position": {
        "lat": 51.55122817,
        "lon": -0.29577538
      }
    },
    "WembleyPark": {
      "title": "Wembley Park",
      "address": "32 Chesterton Rd, Cambridge CB4 3AX",
      "website": "http://www.thewaterman-cambridge.co.uk/",
      "phone": "01223 323813",
      "position": {
        "lat": 51.56355598,
        "lon": -0.279770242
      }
    },
    "WestActon": {
      "title": "West Acton",
      "address": "32 Chesterton Rd, Cambridge CB4 3AX",
      "website": "http://www.thewaterman-cambridge.co.uk/",
      "phone": "01223 323813",
      "position": {
        "lat": 51.51818,
        "lon": -0.28064
      }
    },
    "WestBrompton": {
      "title": "West Brompton",
      "address": "32 Chesterton Rd, Cambridge CB4 3AX",
      "website": "http://www.thewaterman-cambridge.co.uk/",
      "phone": "01223 323813",
      "position": {
        "lat": 51.48681,
        "lon": -0.19475
      }
    },
    "WestFinchley": {
      "title": "West Finchley",
      "address": "32 Chesterton Rd, Cambridge CB4 3AX",
      "website": "http://www.thewaterman-cambridge.co.uk/",
      "phone": "01223 323813",
      "position": {
        "lat": 51.60922281219,
        "lon": -0.188711152265457
      }
    },
    "WestHam": {
      "title": "West Ham",
      "address": "32 Chesterton Rd, Cambridge CB4 3AX",
      "website": "http://www.thewaterman-cambridge.co.uk/",
      "phone": "01223 323813",
      "position": {
        "lat": 51.527917,
        "lon": 0.004141
      }
    },
    "WestHampstead": {
      "title": "West Ham",
      "address": "32 Chesterton Rd, Cambridge CB4 3AX",
      "website": "http://www.thewaterman-cambridge.co.uk/",
      "phone": "01223 323813",
      "position": {
        "lat": 51.54678865,
        "lon": -0.191016868
      }
    },
    "WestHarrow": {
      "title": "West Ham",
      "address": "32 Chesterton Rd, Cambridge CB4 3AX",
      "website": "http://www.thewaterman-cambridge.co.uk/",
      "phone": "01223 323813",
      "position": {
        "lat": 51.5795432,
        "lon": -0.353144584
      }
    },
    "WestKensington": {
      "title": "West Ham",
      "address": "32 Chesterton Rd, Cambridge CB4 3AX",
      "website": "http://www.thewaterman-cambridge.co.uk/",
      "phone": "01223 323813",
      "position": {
        "lat": 51.490850,
        "lon": -0.205320
      }
    },
    "WestRuislip": {
      "title": "West Ham",
      "address": "32 Chesterton Rd, Cambridge CB4 3AX",
      "website": "http://www.thewaterman-cambridge.co.uk/",
      "phone": "01223 323813",
      "position": {
        "lat": 51.569324,
        "lon": -0.436740
      }
    },
    "WestbournePark": {
      "title": "WestbournePark",
      "address": "32 Chesterton Rd, Cambridge CB4 3AX",
      "website": "http://www.thewaterman-cambridge.co.uk/",
      "phone": "01223 323813",
      "position": {
        "lat": 51.520995,
        "lon": -0.201778
      }
    },
    "Westminster": {
      "title": "WestbournePark",
      "address": "32 Chesterton Rd, Cambridge CB4 3AX",
      "website": "http://www.thewaterman-cambridge.co.uk/",
      "phone": "01223 323813",
      "position": {
        "lat": 51.50121,
        "lon": -0.12489
      }
    },
    "WhiteCity": {
      "title": "White City",
      "address": "32 Chesterton Rd, Cambridge CB4 3AX",
      "website": "http://www.thewaterman-cambridge.co.uk/",
      "phone": "01223 323813",
      "position": {
        "lat": 51.512206,
        "lon": -0.224226
      }
    },
    "WhiteChapel": {
      "title": "White Chapel",
      "website": "http://www.whiteswancambridge.co.uk/",
      "position": {
        "lat": 51.51946,
        "lon": -0.05951
      }
    },
    "WillesdenGreen": {
      "title": "Willesden Green",
      "website": "http://www.whiteswancambridge.co.uk/",
      "position": {
        "lat": 51.54919,
        "lon": -0.22106
      }
    },
    "WillesdenJunction": {
      "title": "Willesden Junction",
      "website": "http://www.whiteswancambridge.co.uk/",
      "position": {
        "lat": 51.53181,
        "lon": -0.242350
      }
    },
    "Wimbledon": {
      "title": "Wimbledon",
      "website": "http://www.whiteswancambridge.co.uk/",
      "position": {
        "lat": 	51.42200,
        "lon": -0.20544
      }
    },
    "WimbledonPark": {
      "title": "Wimbledon Park",
      "website": "http://www.whiteswancambridge.co.uk/",
      "position": {
        "lat": 51.43391,
        "lon": -0.19864
      }
    },
    "WoodGreen": {
      "title": "Wimbledon Park",
      "website": "http://www.whiteswancambridge.co.uk/",
      "position": {
        "lat": 51.59709,
        "lon": -0.10939
      }
    },
    "WoodLane": {
      "title": "Wimbledon Park",
      "website": "http://www.whiteswancambridge.co.uk/",
      "position": {
        "lat": 51.59709,
        "lon": -0.10939
      }
    },
    "Woodford": {
      "title": "Woodford",
      "website": "http://www.whiteswancambridge.co.uk/",
      "position": {
        "lat": 51.60582,
        "lon": 0.03328
      }
    },
    "WoodsidePark": {
      "title": "Woodside Park",
      "position": {
        "lat": 51.6181717295887,
        "lon": -0.185578887883903
      }
    }
  },
  "lines": [{
    "name": "Circle",
    "label": "Circle Line",
    "color": "#ffd300",
    "shiftCoords": [0, 0],
    "nodes": [{
      "coords": [14, -4],
      "name": "Hammersmith",
      "labelPos": "S"
    }, {
      "coords": [23, -4],
      "marker": "interchange",
      "name": "GoldhawkRoad",
      "labelPos": "NW",
      "shiftCoords": [0, 0],
      "canonical": true
    }, {
      "coords": [14, -4],
      "name": "ShepardsBushMarket",
      "labelPos": "S"
    },{
      "coords": [14, -4],
      "name": "WoodLane",
      "labelPos": "S"
    },{
      "coords": [14, -4],
      "name": "LatimerRoad",
      "labelPos": "S"
    },{
      "coords": [14, -4],
      "name": "LadbrokeGrove",
      "labelPos": "S"
    },{
      "coords": [14, -4],
      "name": "WestbournePark",
      "labelPos": "S"
    },
    {
      "coords": [14, -4],
      "name": "RoyalOak",
      "labelPos": "S"
    },{
      "coords": [14, -4],
      "name": "Paddington",
      "labelPos": "S"
    },{
      "coords": [14, -4],
      "name": "EdgwareRoad",
      "labelPos": "S"
    },{
      "coords": [14, -4],
      "name": "BakerStreet",
      "labelPos": "S"
    },
    {
      "coords": [14, -4],
      "name": "GreatPortlandStreet",
      "labelPos": "S"
    },{
      "coords": [14, -4],
      "name": "EustonSquare",
      "labelPos": "S"
    },{
      "coords": [14, -4],
      "name": "KingsCrossStPancras",
      "labelPos": "S"
    },{
      "coords": [14, -4],
      "name": "Farringdon",
      "labelPos": "S"
    },
    {
      "coords": [14, -4],
      "name": "Barbican",
      "labelPos": "S"
    },
    {
      "coords": [14, -4],
      "name": "Moorgate",
      "labelPos": "S"
    },{
      "coords": [14, -4],
      "name": "LiverpoolStreet",
      "labelPos": "S"
    },{
      "coords": [14, -4],
      "name": "Aldgate",
      "labelPos": "S"
    },{
      "coords": [14, -4],
      "name": "TowerHill",
      "labelPos": "S"
    },{
      "coords": [14, -4],
      "name": "Monument",
      "labelPos": "S"
    },{
      "coords": [14, -4],
      "name": "CannonStreet",
      "labelPos": "S"
    },
    {
      "coords": [14, -4],
      "name": "MansionHouse",
      "labelPos": "S"
    },
    {
      "coords": [14, -4],
      "name": "Temple",
      "labelPos": "S"
    },  {
        "coords": [14, -4],
        "name": "Embankment",
        "labelPos": "S"
      },
      {
        "coords": [14, -4],
        "name": "Embankment",
        "labelPos": "S"
      },
      {
        "coords": [14, -4],
        "name": "Westminster",
        "labelPos": "S"
      },
      {
        "coords": [14, -4],
        "name": "StJamessPark",
        "labelPos": "S"
      },
      {
        "coords": [14, -4],
        "name": "Victoria",
        "labelPos": "S"
      },
      {
        "coords": [14, -4],
        "name": "Temple",
        "labelPos": "S"
      },
      {
        "coords": [14, -4],
        "name": "SloaneSquare",
        "labelPos": "S"
      },
      {
        "coords": [14, -4],
        "name": "SouthKensington",
        "labelPos": "S"
      },
      {
        "coords": [14, -4],
        "name": "GloucsterRoad",
        "labelPos": "S"
      },
      {
        "coords": [14, -4],
        "name": "HighStreetKensingtion",
        "labelPos": "S"
      },
      {
        "coords": [14, -4],
        "name": "NottingHillGate",
        "labelPos": "S"
      },
      {
        "coords": [14, -4],
        "name": "Bayswater",
        "labelPos": "S"
      },
      {
        "coords": [14, -4],
        "name": "Paddington",
        "labelPos": "S"
      },
      {
        "coords": [14, -4],
        "name": "EdgwareRoad",
        "labelPos": "S"
      },
      {
      "coords": [30, -4]
    }, {
      "coords": [31, -3],
      "dir": "E"
    }, {
      "coords": [30, 10],
      "dir": "N"
    }, {
      "coords": [23, 10],
      "marker": "interchange",
      "canonical": true
    }]
  }, {
    "name": "Bakerloo",
    "label": "Bakerloo",
    "color": "#b36305",
    "shiftCoords": [0, 1],
    "nodes": [{
      "coords": [10, 33],
      "name": "Harrow&Wealdstone",
      "labelPos": "N"
    }, {
      "coords": [10, 33],
      "name": "Kenton",
      "labelPos": "N"
    },
    {
      "coords": [10, 33],
      "name": "SouthKenton",
      "labelPos": "N"
    },
    {
      "coords": [10, 33],
      "name": "NorthWembley",
      "labelPos": "N"
    },
    {
      "coords": [10, 33],
      "name": "WembleyCentral",
      "labelPos": "N"
    },
    {
      "coords": [10, 33],
      "name": "StonebridgePark",
      "labelPos": "N"
    },
    {
      "coords": [10, 33],
      "name": "Harlesden",
      "labelPos": "N"
    },
    {
      "coords": [10, 33],
      "name": "WillesdenJunction",
      "labelPos": "N"
    },
    {
      "coords": [10, 33],
      "name": "KensalGreen",
      "labelPos": "N"
    },
    {
      "coords": [10, 33],
      "name": "QueensPark",
      "labelPos": "N"
    },
    {
      "coords": [10, 33],
      "name": "KilburnPark",
      "labelPos": "N"
    },
    {
      "coords": [10, 33],
      "name": "MaidaVale",
      "labelPos": "N"
    },
    {
      "coords": [10, 33],
      "name": "WarwickAvenue",
      "labelPos": "N"
    },
    {
      "coords": [10, 33],
      "name": "Paddington",
      "labelPos": "N"
    },
    {
      "coords": [10, 33],
      "name": "EdgwareRoad",
      "labelPos": "N"
    },
    {
      "coords": [10, 33],
      "name": "Marylebone",
      "labelPos": "N"
    },
    {
      "coords": [10, 33],
      "name": "QueensPark",
      "labelPos": "N"
    },
    {
      "coords": [10, 33],
      "name": "BakerStreet",
      "labelPos": "N"
    },
    {
      "coords": [10, 33],
      "name": "RegentsPark",
      "labelPos": "N"
    },
    {
      "coords": [10, 33],
      "name": "OxfordCircus",
      "labelPos": "N"
    },
    {
      "coords": [10, 33],
      "name": "PiccadillyCircus",
      "labelPos": "N"
    },
    {
      "coords": [10, 33],
      "name": "CharingCross",
      "labelPos": "N"
    },
    {
      "coords": [10, 33],
      "name": "Embankment",
      "labelPos": "N"
    },
    {
      "coords": [10, 33],
      "name": "Waterloo",
      "labelPos": "N"
    },
    {
      "coords": [10, 33],
      "name": "LambethNorth",
      "labelPos": "N"
    },
    {
      "coords": [10, 33],
      "name": "Elephant&Castle",
      "labelPos": "N"
    },
    {
      "coords": [1, 33]
    }]
  }, {
    "name": "Victoria",
    "label": "Victoria",
    "color": "#0098d4",
    "shiftCoords": [0, 0],
    "nodes": [{
      "coords": [3, -4],
      "marker": "interchange",
      "name": "WalthamstowCentral",
      "labelPos": "SW",
      "shiftCoords": [0, -1],
      "canonical": true
    }, {
      "coords": [10, 23],
      "name": "BlackhorseRoad",
      "labelPos": "S"
    },
    {
      "coords": [10, 23],
      "name": "TottenhamHale",
      "labelPos": "S"
    },
    {
      "coords": [10, 23],
      "name": "SevenSisters",
      "labelPos": "S"
    },
    {
      "coords": [10, 23],
      "name": "FinsburyPark",
      "labelPos": "S"
    },
    {
      "coords": [10, 23],
      "name": "Highbury&Islington",
      "labelPos": "S"
    },
    {
      "coords": [10, 23],
      "name": "KingsCrossStPancras",
      "labelPos": "S"
    },
    {
      "coords": [10, 23],
      "name": "Euston",
      "labelPos": "S"
    },
    {
      "coords": [10, 23],
      "name": "WarrenStreet",
      "labelPos": "S"
    },
    {
      "coords": [10, 23],
      "name": "OxfordCircus",
      "labelPos": "S"
    },
    {
      "coords": [10, 23],
      "name": "GreenPark",
      "labelPos": "S"
    },
    {
      "coords": [10, 23],
      "name": "Victoria",
      "labelPos": "S"
    },
    {
      "coords": [10, 23],
      "name": "Pimlico",
      "labelPos": "S"
    },
    {
      "coords": [10, 23],
      "name": "Vauxhall",
      "labelPos": "S"
    },
    {
      "coords": [10, 23],
      "name": "Stockwell",
      "labelPos": "S"
    },
    {
      "coords": [10, 23],
      "name": "Brixton",
      "labelPos": "S"
    },
    {
      "coords": [3, 18]
    }, {
      "coords": [4, 20]
    }, {
      "coords": [6, 22]
    }, {
      "coords": [8, 23]
    }]
  }, {
  "name": "Northern(viaMillHillEast)",
  "label": "Northern",
  "color": "#a0a5a9",
  "shiftCoords": [0, 0],
  "nodes": [ {
    "coords": [42, -6],
    "name": "MillHillEast",
    "labelPos": "NW"
  },
  {
    "coords": [42, -6],
    "name": "FinchleyCentral",
    "labelPos": "NW"
  }]
  }, {
    "name": "Northern(viaHighBarnet)",
    "label": "Northern",
    "color": "#e32017",
    "shiftCoords": [0, 0],
    "nodes": [ {
      "coords": [16, 2],
      "name": "HighBarnet",
      "labelPos": "S"
    },
    {
      "coords": [16, 2],
      "name": "Totteridge&Whetstone",
      "labelPos": "S"
    },
    {
      "coords": [16, 2],
      "name": "WoodsidePark",
      "labelPos": "S"
    },
    {
      "coords": [16, 2],
      "name": "WestFinchley",
      "labelPos": "S"
    },
    {
      "coords": [16, 2],
      "name": "FinchleyCentral",
      "labelPos": "S"
    },
    {
      "coords": [16, 2],
      "name": "EastFinchley",
      "labelPos": "S"
    },
    {
      "coords": [16, 2],
      "name": "Highgate",
      "labelPos": "S"
    },
    {
      "coords": [16, 2],
      "name": "Archway",
      "labelPos": "S"
    },
    {
      "coords": [16, 2],
      "name": "TufnellPark",
      "labelPos": "S"
    },
    {
      "coords": [16, 2],
      "name": "KentishTown",
      "labelPos": "S"
    },
    {
      "coords": [16, 2],
      "name": "CamdenTown",
      "labelPos": "S"
    },
    {
      "coords": [16, 2],
      "name": "Euston",
      "labelPos": "S"
    },
    {
      "coords": [16, 2],
      "name": "KingsCrossStPancras",
      "labelPos": "S"
    },


    {
      "coords": [19, 2],
      "name": "Angel",
      "labelPos": "N"
    }, {
      "coords": [31, 2],
      "name": "OldStreet",
      "labelPos": "SW"
    },
    {
      "coords": [39, 2],
      "name": "Moorgate",
      "labelPos": "NW"
    }, {
      "coords": [43, 2],
      "name": "Bank",
      "labelPos": "S"
    }, {
      "coords": [47, 2],
      "name": "LondonBridge",
      "labelPos": "N"
    }, {
      "coords": [50, 2],
      "name": "Borough",
      "labelPos": "S"
    }, {
      "coords": [54, 2],
      "name": "Elephant&Castle",
      "labelPos": "N"
    }, {
      "coords": [57, 2],
      "name": "Kennington",
      "labelPos": "S"
    }, {
      "coords": [62, 2],
      "name": "Oval",
      "labelPos": "N"
    }, {
      "coords": [67, 2],
      "name": "Stockwell",
      "labelPos": "S"
    }, {
      "coords": [69, 2],
      "name": "ClaphamNorth",
      "labelPos": "N"
    },
    {
      "coords": [69, 2],
      "name": "ClaphamCommon",
      "labelPos": "N"
    },
    {
      "coords": [69, 2],
      "name": "ClaphamSouth",
      "labelPos": "N"
    },
    {
      "coords": [69, 2],
      "name": "Balham",
      "labelPos": "N"
    },
    {
      "coords": [69, 2],
      "name": "TootingBec",
      "labelPos": "N"
    },
    {
      "coords": [69, 2],
      "name": "TootingBroadway",
      "labelPos": "N"
    },
    {
      "coords": [69, 2],
      "name": "ColliersWood",
      "labelPos": "N"
    },
    {
      "coords": [69, 2],
      "name": "SouthWimbledon",
      "labelPos": "N"
    },
    {
      "coords": [69, 2],
      "name": "Morden",
      "labelPos": "N"
    },

    {
      "coords": [70, 2]
    }, {
      "coords": [72, 1]
    }, {
      "coords": [74, -1]
    }]
  },
{

  "name": "Northern(viaEdgware)",
  "label": "Northern",
  "color": "#e32017",
  "shiftCoords": [0, 0],
  "nodes": [{
    "coords": [9, 2],
    "marker": "interchange",
    "name": "Edgware",
    "labelPos": "NE",
    "canonical": true
  }, {
    "coords": [16, 2],
    "name": "Colindale",
    "labelPos": "S"
  },
  {
   "coords": [16, 2],
   "name": "HendonCentral",
   "labelPos": "S"
 },
 {
  "coords": [16, 2],
  "name": "BrentCross",
  "labelPos": "S"
},
{
 "coords": [16, 2],
 "name": "GoldersGreen",
 "labelPos": "S"
},
{
 "coords": [16, 2],
 "name": "Hampstead",
 "labelPos": "S"
},
{
 "coords": [16, 2],
 "name": "BelsizePark",
 "labelPos": "S"
},
{
 "coords": [16, 2],
 "name": "ChalkFarm",
 "labelPos": "S"
},
{
 "coords": [16, 2],
 "name": "CamdenTown",
 "labelPos": "S"
},
{
 "coords": [16, 2],
 "name": "MorningtonCrescent",
 "labelPos": "S"
},
{
 "coords": [16, 2],
 "name": "Euston",
 "labelPos": "S"
},
{
 "coords": [16, 2],
 "name": "WarrenStreet",
 "labelPos": "S"
},
{
 "coords": [16, 2],
 "name": "GoodgeStreet",
 "labelPos": "S"
},
{
 "coords": [16, 2],
 "name": "BurntOak",
 "labelPos": "S"
},
{
 "coords": [16, 2],
 "name": "TottenhamCourtRoad",
 "labelPos": "S"
},
{
 "coords": [16, 2],
 "name": "LeicesterSquare",
 "labelPos": "S"
},
{
 "coords": [16, 2],
 "name": "CharingCross",
 "labelPos": "S"
},
{
 "coords": [16, 2],
 "name": "Embankment",
 "labelPos": "S"
},
{
 "coords": [16, 2],
 "name": "Waterloo",
 "labelPos": "S"
},
{
 "coords": [16, 2],
 "name": "Kennington",
 "labelPos": "S"
},
{
 "coords": [16, 2],
 "name": "Oval",
 "labelPos": "S"
}]

},

  {
    "name": "District(viaEaling)",
    "label": "District",
    "color": "#00782a",
    "shiftCoords": [1, -1],
    "nodes": [{
      "coords": [-27, -22],
      "name": "EalingBroadway",
      "labelPos": "W"
    }, {
      "coords": [-27, -20],
      "name": "EalingCommon",
      "labelPos": "W"
    },
    {
      "coords": [-27, -18],
      "name": "ActonTown",
      "labelPos": "W"
    }, {
      "coords": [-27, -16],
      "name": "ChiswickPark",
      "labelPos": "W"
    },
    {
      "coords": [-27, -16],
      "name": "TurnhamGreen",
      "labelPos": "W"
    },
    {
      "coords": [-27, -16],
      "name": "StamfordBrook",
      "labelPos": "W"
    },
    {
      "coords": [-27, -16],
      "name": "RavenscourtPark",
      "labelPos": "W"
    },
    {
      "coords": [-27, -16],
      "name": "Hammersmith",
      "labelPos": "W"
    },
    {
      "coords": [-27, -16],
      "name": "BaronsCourt",
      "labelPos": "W"
    },
    {
      "coords": [-27, -16],
      "name": "WestKensington",
      "labelPos": "W"
    },
    {
      "coords": [-27, -16],
      "name": "EarlsCourt",
      "labelPos": "W"
    },
    {
      "coords": [-27, -16],
      "name": "GloucsterRoad",
      "labelPos": "W"
    },
    {
      "coords": [-27, -16],
      "name": "SouthKensington",
      "labelPos": "W"
    },
    {
      "coords": [-27, -16],
      "name": "SloaneSquare",
      "labelPos": "W"
    },
    {
      "coords": [-27, -16],
      "name": "Victoria",
      "labelPos": "W"
    },
    {
      "coords": [-27, -16],
      "name": "StJamessPark",
      "labelPos": "W"
    },
    {
      "coords": [-27, -16],
      "name": "Westminster",
      "labelPos": "W"
    },
    {
      "coords": [-27, -16],
      "name": "Embankment",
      "labelPos": "W"
    },
    {
      "coords": [-27, -16],
      "name": "Temple",
      "labelPos": "W"
    },
    {
      "coords": [-27, -16],
      "name": "Blackfriars",
      "labelPos": "W"
    },
    {
      "coords": [-27, -16],
      "name": "MansionHouse",
      "labelPos": "W"
    },
    {
      "coords": [-27, -16],
      "name": "CannonStreet",
      "labelPos": "W"
    },
    {
      "coords": [-27, -16],
      "name": "Monument",
      "labelPos": "W"
    },
    {
      "coords": [-27, -16],
      "name": "TowerHill",
      "labelPos": "W"
    },
    {
      "coords": [-27, -16],
      "name": "AldgateEast",
      "labelPos": "W"
    },
    {
      "coords": [-27, -16],
      "name": "WhiteChapel",
      "labelPos": "W"
    },
    {
      "coords": [-27, -16],
      "name": "StepneyGreen",
      "labelPos": "W"
    },
    {
      "coords": [-27, -16],
      "name": "MileEnd",
      "labelPos": "W"
    },
    {
      "coords": [-27, -16],
      "name": "BowRoad",
      "labelPos": "W"
    },
    {
      "coords": [-27, -16],
      "name": "Bromley-by-Bow",
      "labelPos": "W"
    },
    {
      "coords": [-27, -16],
      "name": "WestHam",
      "labelPos": "W"
    },
    {
      "coords": [-27, -16],
      "name": "Plaistow",
      "labelPos": "W"
    },
    {
      "coords": [-27, -16],
      "name": "EastHam",
      "labelPos": "W"
    },
    {
      "coords": [-27, -16],
      "name": "Barking",
      "labelPos": "W"
    },
    {
      "coords": [-27, -16],
      "name": "Upney",
      "labelPos": "W"
    },
    {
      "coords": [-27, -16],
      "name": "Becontree",
      "labelPos": "W"
    },
    {
      "coords": [-27, -16],
      "name": "DagenhamHeathway",
      "labelPos": "W"
    },
    {
      "coords": [-27, -16],
      "name": "DagenhamEast",
      "labelPos": "W"
    },
    {
      "coords": [-27, -16],
      "name": "ElmPark",
      "labelPos": "W"
    },
    {
      "coords": [-27, -16],
      "name": "Hornchurch",
      "labelPos": "W"
    },
    {
      "coords": [-27, -16],
      "name": "UpminsterBridge",
      "labelPos": "W"
    },
    {
      "coords": [-27, -16],
      "name": "Upminster",
      "labelPos": "W"
    }]
  },{
    "name": "District(viaWimbledon)",
    "label": "District",
    "color": "#a0a5a9",
    "shiftCoords": [0, 0],
    "nodes": [{
      "coords": [39, 2]
    },{
      "coords": [88, 38],
      "name": "EdgwareRoad",
      "labelPos": "SE"
    },
    {
      "coords": [88, 38],
      "name": "Paddington",
      "labelPos": "SE"
    },
    {
      "coords": [88, 38],
      "name": "Bayswater",
      "labelPos": "SE"
    },
    {
      "coords": [88, 38],
      "name": "NottingHillGate",
      "labelPos": "SE"
    },
    {
      "coords": [88, 38],
      "name": "HighStreetKensingtion",
      "labelPos": "SE"
    },
    {
      "coords": [88, 38],
      "name": "EarlsCourt",
      "labelPos": "SE"
    },
    {
      "coords": [88, 38],
      "name": "WestBrompton",
      "labelPos": "SE"
    },
    {
      "coords": [88, 38],
      "name": "FulhamBroadway",
      "labelPos": "SE"
    },
    {
      "coords": [88, 38],
      "name": "ParsonsGreen",
      "labelPos": "SE"
    },
    {
      "coords": [88, 38],
      "name": "PutneyBridge",
      "labelPos": "SE"
    },
    {
      "coords": [88, 38],
      "name": "EastPutney",
      "labelPos": "SE"
    },
    {
      "coords": [88, 38],
      "name": "Southfields",
      "labelPos": "SE"
    },
    {
      "coords": [88, 38],
      "name": "WimbledonPark",
      "labelPos": "SE"
    },
    {
      "coords": [88, 38],
      "name": "Wimbledon",
      "labelPos": "SE"
    },


    {
      "coords": [39, 2]
    }



  ]
    },{
      "name": "Central(ViaEalingB)",
      "label": "Central",
      "color": "#00782a",
      "shiftCoords": [1, -1],
      "nodes": [{
        "coords": [-27, -22],
        "name": "EalingBroadway",
        "labelPos": "W"
      },
      {
        "coords": [-27, -20],
        "name": "WestActon",
        "labelPos": "W"
      },

      {
        "coords": [-27, -20],
        "name": "NorthActon",
        "labelPos": "W"
      },

      {
        "coords": [-27, -20],
        "name": "EastActon",
        "labelPos": "W"
      },
      {
        "coords": [-27, -20],
        "name": "WhiteCity",
        "labelPos": "W"
      },
      {
        "coords": [-27, -20],
        "name": "ShepardsBush",
        "labelPos": "W"
      },  {
          "coords": [-27, -20],
          "name": "HollandPark",
          "labelPos": "W"
        },
        {
           "coords": [-27, -20],
           "name": "NottingHillGate",
           "labelPos": "W"
         },
         {
            "coords": [-27, -20],
            "name": "Queensway",
            "labelPos": "W"
          },
          {
             "coords": [-27, -20],
             "name": "LancasterGate",
             "labelPos": "W"
           },
           {
              "coords": [-27, -20],
              "name": "MarbleArch",
              "labelPos": "W"
            },
            {
               "coords": [-27, -20],
               "name": "BondStreet",
               "labelPos": "W"
             },
             {
                "coords": [-27, -20],
                "name": "OxfordCircus",
                "labelPos": "W"
              },
              {
                 "coords": [-27, -20],
                 "name": "TottenhamCourtRoad",
                 "labelPos": "W"
               },
               {
                  "coords": [-27, -20],
                  "name": "Holborn",
                  "labelPos": "W"
                },
                {
                   "coords": [-27, -20],
                   "name": "ChanceryLane",
                   "labelPos": "W"
                 },
                 {
                    "coords": [-27, -20],
                    "name": "StPauls",
                    "labelPos": "W"
                  },
                  {
                     "coords": [-27, -20],
                     "name": "Bank",
                     "labelPos": "W"
                   },
                   {
                      "coords": [-27, -20],
                      "name": "LiverpoolStreet",
                      "labelPos": "W"
                    },
                    {
                       "coords": [-27, -20],
                       "name": "BethnalGreen",
                       "labelPos": "W"
                     },
                     {
                        "coords": [-27, -20],
                        "name": "MileEnd",
                        "labelPos": "W"
                      },
                      {
                         "coords": [-27, -20],
                         "name": "Stratford",
                         "labelPos": "W"
                      },
                      {
                         "coords": [-27, -20],
                         "name": "Leyton",
                         "labelPos": "W"
                      },
                      {
                         "coords": [-27, -20],
                         "name": "LeytonStone",
                         "labelPos": "W"
                      },
                      {
                         "coords": [-27, -20],
                         "name": "Snaresbrook",
                         "labelPos": "W"
                      },
                      {
                         "coords": [-27, -20],
                         "name": "SouthWoodford",
                         "labelPos": "W"
                       },
                       {
                          "coords": [-27, -20],
                          "name": "Woodford",
                          "labelPos": "W"
                        },
                        {
                           "coords": [-27, -20],
                           "name": "BuckhurstHill",
                           "labelPos": "W"
                        },
                        {
                           "coords": [-27, -20],
                           "name": "Loughton",
                           "labelPos": "W"
                        },
                        {
                           "coords": [-27, -20],
                           "name": "Debden",
                           "labelPos": "W"
                        },
                        {
                           "coords": [-27, -20],
                           "name": "TheydonBois",
                           "labelPos": "W"
                        },
                        {
                           "coords": [-27, -20],
                           "name": "Epping",
                           "labelPos": "W"
                        }]
    },
    {
      "name": "Central(viaWestRuislip)",
      "label": "Central",
      "color": "#a0a5a9",
      "shiftCoords": [0, 0],
      "nodes": [  {
          "coords": [88, 38],
          "name": "WestRuislip",
          "labelPos": "SE"
        },   {
            "coords": [88, 38],
            "name": "RuislipGardens",
            "labelPos": "SE"
          },
          {
            "coords": [88, 38],
            "name": "SouthRuislip",
            "labelPos": "SE"
          },
          {
            "coords": [88, 38],
            "name": "Northholt",
            "labelPos": "SE"
          },
          {
            "coords": [88, 38],
            "name": "Greenford",
            "labelPos": "SE"
          },
          {
            "coords": [88, 38],
            "name": "Perivale",
            "labelPos": "SE"
          },
          {
            "coords": [88, 38],
            "name": "HangerLane",
            "labelPos": "SE"
          },
          {
            "coords": [88, 38],
            "name": "NorthActon",
            "labelPos": "SE"
          }]
      },

      {
        "name": "Central(viaRodingValley)",
        "label": "Central",
        "color": "#a0a5a9",
        "shiftCoords": [0, 0],
        "nodes": [  {
            "coords": [88, 38],
            "name": "Woodford",
            "labelPos": "SE"
          },   {
              "coords": [88, 38],
              "name": "RodingValley",
              "labelPos": "SE"
            },
            {
              "coords": [88, 38],
              "name": "Chigwell",
              "labelPos": "SE"
            },
            {
              "coords": [88, 38],
              "name": "GrangeHill",
              "labelPos": "SE"
            },
            {
              "coords": [88, 38],
              "name": "Hainault",
              "labelPos": "SE"
            },
            {
              "coords": [88, 38],
              "name": "Fairlop",
              "labelPos": "SE"
            },
            {
              "coords": [88, 38],
              "name": "Barkingside",
              "labelPos": "SE"
            },
            {
              "coords": [88, 38],
              "name": "NewburyPark",
              "labelPos": "SE"
            },
            {
              "coords": [88, 38],
              "name": "GantsHill",
              "labelPos": "SE"
            },
            {
              "coords": [88, 38],
              "name": "Redbridge",
              "labelPos": "SE"
            },
            {
              "coords": [88, 38],
              "name": "Wanstead",
              "labelPos": "SE"
            }
          ]
        },
    {
      "name": "District(viaRichmond)",
      "label": "District",
      "color": "#a0a5a9",
      "shiftCoords": [0, 0],
      "nodes": [  {
          "coords": [88, 38],
          "name": "TurnhamGreen",
          "labelPos": "SE"
        },   {
            "coords": [88, 38],
            "name": "Gunnersbury",
            "labelPos": "SE"
          },
          {
            "coords": [88, 38],
            "name": "KewGardens",
            "labelPos": "SE"
          },
          {
            "coords": [88, 38],
            "name": "Richmond",
            "labelPos": "SE"
          }]
      },
     {
    "name": "Metropolitan(viaUxbridge)",
    "label": "Metropolitan",
    "color": "#a0a5a9",
    "shiftCoords": [0, 0],
    "nodes": [{
      "coords": [39, 2]
    }, {
      "coords": [39, -2]
    }, {
      "coords": [40, -4]
    }, {
      "coords": [42, -6],
      "name": "Uxbridge",
      "labelPos": "NE"
    }, {
      "coords": [44, -8],
      "name": "Hillingdon",
      "labelPos": "NE"
    }, {
      "coords": [46, -10],
      "name": "Ickenham",
      "labelPos": "NE"
    }, {
      "coords": [48, -12],
      "name": "Ruislip",
      "labelPos": "NE"
    }, {
      "coords": [50, -14],
      "name": "RuislipManor",
      "labelPos": "SW"
    }, {
      "coords": [52, -16],
      "name": "Eastcote",
      "labelPos": "NE"
    }, {
      "coords": [54, -18],
      "name": "RaynersLane",
      "labelPos": "NE"
    }, {
      "coords": [56, -20],
      "name": "WestHarrow",
      "labelPos": "SW"
    }, {
      "coords": [58, -22],
      "name": "Harrow-on-the-Hill",
      "labelPos": "SW"
    },
    {
      "coords": [58, -22],
      "name": "NorthwickPark",
      "labelPos": "SW"
    },
    {
      "coords": [58, -22],
      "name": "PrestonRoad",
      "labelPos": "SW"
    },
    {
      "coords": [58, -22],
      "name": "WembleyPark",
      "labelPos": "SW"
    },
    {
      "coords": [58, -22],
      "name": "FinchleyRoad",
      "labelPos": "SW"
    },
    {
      "coords": [58, -22],
      "name": "BakerStreet",
      "labelPos": "SW"
    },
    {
      "coords": [58, -22],
      "name": "GreatPortlandStreet",
      "labelPos": "SW"
    },
    {
      "coords": [58, -22],
      "name": "EustonSquare",
      "labelPos": "SW"
    },
    {
      "coords": [58, -22],
      "name": "Farringdon",
      "labelPos": "SW"
    },
    {
      "coords": [58, -22],
      "name": "Barbican",
      "labelPos": "SW"
    },
    {
      "coords": [58, -22],
      "name": "Moorgate",
      "labelPos": "SW"
    },
    {
      "coords": [58, -22],
      "name": "LiverpoolStreet",
      "labelPos": "SW"
    },
    {
      "coords": [58, -22],
      "name": "Aldgate",
      "labelPos": "SW"
    }]
  },{
 "name": "Metropolitan(viaAmersham)",
 "label": "Metropolitan",
 "color": "#9B0056",
 "shiftCoords": [0, 0],
 "nodes": [{
   "coords": [-98.46, 65.4],
   "name": "Amersham",
   "labelPos": "S"
 },
 {
   "coords": [-84.54, 65.4],
   "name": "Chalfont&Latimer",
   "labelPos": "N"
 },
 {
   "coords": [-79, 65.4]
 },
 {
   "coords": [-77.12, 63.82],
   "name": "Chorleywood",
   "labelPos": "SW"
 },
 {
   "coords": [-74.6, 61.36],
   "name": "Rickmansworth",
   "labelPos": "SW"
 },
 {
   "coords": [-72.04, 58.74],
   "name": "MoorPark",
   "labelPos": "NE"
 },
 {
   "coords": [-69.72, 56.28],
   "name": "Northwood",
   "labelPos": "NE"
 },
 {
   "coords": [-67.1, 53.96],
   "name": "NorthwoodHills",
   "labelPos": "NE"
 },
 {
   "coords": [-64.64, 51.34],
   "name": "Pinner",
   "labelPos": "NE"
 },
 {
   "coords": [-62.3, 49.02],
   "name": "NorthHarrow",
   "labelPos": "NE"
 }, {
    "coords": [-59.7, 45.7]
  },
  {
    "coords": [-58.54, 45.6]
  },
 {
   "coords": [-56.06, 45.4],
   "name": "Harrow-on-the-Hill",
   "labelPos": "N",
   "marker": "interchange"
 }
]
 },
 {
"name": "Metropolitan(viaChesham)",
"label": "Metropolitan",
"color": "#a0a5a9",
"shiftCoords": [0, 0],
"nodes": [ {
  "coords": [42, -6],
  "name": "Chesham",
  "labelPos": "NW"
},{
  "coords": [42, -6],
  "name": "Chalfont&Latimer",
  "labelPos": "NW"
}

]
},
{
"name": "Metropolitan(viaWatford)",
"label": "Metropolitan",
"color": "#9B0056",
"shiftCoords": [0, 0],
"nodes": [ {
 "coords": [-73.2, 65.4],
 "name": "Watford",
 "labelPos": "E"
},{
 "coords": [-73.2, 62.52],
 "name": "Croxley",
 "labelPos": "E"
},
{
  "coords": [-73.2, 60.92]
},
{
 "coords": [-72.04, 58.74],
 "name": "MoorPark",
 "labelPos": "NE"
}


]
},
{
"name": "Jubilee",
"label": "Jubilee",
"color": "#a0a5a9",
"shiftCoords": [0, 0],
"nodes": [ {
 "coords": [42, -6],
 "name": "Stanmore",
 "labelPos": "E"
},{
 "coords": [42, -6],
 "name": "CanonsPark",
 "labelPos": "E"
},
{
 "coords": [42, -6],
 "name": "Queensbury",
 "labelPos": "E"
},
{
 "coords": [42, -6],
 "name": "Kingsbury",
 "labelPos": "E"
},
{
 "coords": [42, -6],
 "name": "WembleyPark",
 "labelPos": "NE",
 "hide": true
},
{
 "coords": [42, -6],
 "name": "Neasden",
 "labelPos": "NE"
},
{
 "coords": [42, -6],
 "name": "DollisHill",
 "labelPos": "NE"
},
{
 "coords": [42, -6],
 "name": "WillesdenGreen",
 "labelPos": "NE"
},
{
 "coords": [42, -6],
 "name": "Kilburn",
 "labelPos": "NE"
},
{
 "coords": [42, -6],
 "name": "WestHampstead",
 "labelPos": "NE"
},
{
 "coords": [42, -6],
 "name": "FinchleyRoad",
 "labelPos": "NE"
},
{
 "coords": [42, -6],
 "name": "SwissCottage",
 "labelPos": "NE"
},
{
 "coords": [42, -6],
 "name": "StJohnsWood",
 "labelPos": "NE"
},
{
 "coords": [42, -6],
 "name": "BakerStreet",
 "labelPos": "NE",
 "marker": "interchange",
 "hide" : true
},
{
 "coords": [42, -6],
 "name": "BondStreet",
 "labelPos": "SW",
 "marker": "interchange"
},
{
 "coords": [42, -6],
 "name": "GreenPark",
 "labelPos": "NE",
 "marker" : "interchange"
},
{
 "coords": [42, -6],
 "name": "Westminster",
 "labelPos": "SW",
 "marker" : "interchange"
},
{
 "coords": [42, -6],
 "name": "Waterloo",
 "labelPos": "W",
 "marker" : "interchange"
},
{
 "coords": [42, -6],
 "name": "Southwark",
 "labelPos": "S"
},
{
 "coords": [42, -6],
 "name": "LondonBridge",
 "labelPos": "SE",
 "marker": "interchange"
},
{
 "coords": [42, -6],
 "name": "Bermondsey",
 "labelPos": "N"
},
{
 "coords": [42, -6],
 "name": "CanadaWater",
 "labelPos": "SW"
},
{
 "coords": [42, -6],
 "name": "CanaryWharf",
 "labelPos": "NE"
},
{
 "coords": [42, -6],
 "name": "NorthGreenwich",
 "labelPos": "S"
},
{
 "coords": [42, -6],
 "name": "CanningTown",
 "labelPos": "NE",
 "marker": "interchange"
},
{
 "coords": [42, -6],
 "name": "WestHam",
 "hide" : true,
 "marker": "interchange"
},
{
 "coords": [42, -6],
 "name": "Stratford",
 "hide":true
}]
},

{
"name": "Hammersmith&City",
"label": "City",
"color": "#a0a5a9",
"shiftCoords": [0, 0],
"nodes": [ {
 "coords": [42, -6],
 "name": "Hammersmith",
 "labelPos": "W",
 "marker" : "interchange"
},{
 "coords": [42, -6],
 "name": "GoldhawkRoad",
 "labelPos": "W"
},
{
 "coords": [42, -6],
 "name": "ShepardsBushMarket",
 "labelPos": "W"
},
{
 "coords": [42, -6],
 "name": "WoodLane",
 "labelPos": "SW",
 "marker" : "interchange"
},
{
 "coords": [42, -6],
 "name": "LatimerRoad",
 "labelPos": "NE",
 "hide": true
},
{
 "coords": [42, -6],
 "name": "LadbrokeGrove",
 "labelPos": "NE",
 "hide": true
},
{
 "coords": [42, -6],
 "name": "WestbournePark",
 "labelPos": "NW"
},
{
 "coords": [42, -6],
 "name": "RoyalOak",
 "labelPos": "NW"
},
{
 "coords": [42, -6],
 "name": "Paddington",
 "marker":"interchange",
 "labelPos": "NE",
 "hide":true
},
{
 "coords": [42, -6],
 "marker":"interchange",
 "name": "EdgwareRoad",
 "labelPos": "NE",
 "hide" : true
},
{
 "coords": [42, -6],
 "name": "BakerStreet",
 "labelPos": "NE",
 "marker": "interchange"
},
{
 "coords": [42, -6],
 "name": "GreatPortlandStreet",
 "labelPos": "NE"
},
{
 "coords": [42, -6],
 "name": "KingsCrossStPancras",
 "marker": "interchange",
 "labelPos": "NE",
 "hide":true
},
{
 "coords": [42, -6],
 "name": "Farringdon",
 "labelPos": "NE"
},
{
 "coords": [42, -6],
 "name": "Barbican",
 "labelPos": "SW"
},
{
 "coords": [42, -6],
 "name": "Moorgate",
 "labelPos": "NE",
 "hide":true
},
{
 "coords": [42, -6],
 "name": "LiverpoolStreet",
 "labelPos": "N"
},
{
 "coords": [42, -6],
 "name": "AldgateEast",
 "labelPos": "NW"
},
{
 "coords": [42, -6],
 "name": "WhiteChapel",
 "labelPos": "NE",
 "hide": true
},
{
 "coords": [42, -6],
 "name": "StepneyGreen",
 "labelPos": "NE"
},
{
 "coords": [42, -6],
 "name": "MileEnd",
 "labelPos": "NE"
},
{
 "coords": [42, -6],
 "name": "BowRoad",
 "labelPos": "NE"
},
{
 "coords": [42, -6],
 "name": "Bromley-by-Bow",
 "labelPos": "S",
 "hide":true
},
{
 "coords": [42, -6],
 "name": "WestHam",
 "labelPos": "NE"
},
{
 "coords": [42, -6],
 "name": "Plaistow",
 "labelPos": "NE"
},
{
 "coords": [42, -6],
 "name": "UptonPark",
 "labelPos": "NW"
},
{
 "coords": [42, -6],
 "name": "EastHam",
 "labelPos": "NE",
 "hide":true
},
{
 "coords": [42, -6],
 "name": "Barking",
 "labelPos": "NE",
 "hide":true
}]
},
    {
    "name": "Picadilly",
    "label": "Picadilly",
    "color": "#0016BF",
    "shiftCoords": [0, 0],
    "nodes": [{
      "coords": [-99.04, -36.2],
      "name": "HeathrowTerminal5",
      "labelPos": "SE"
    }, {
        "coords": [-92, -30],
        "name": "HeathrowTerminal4",
        "labelPos": "SE"
      },
    {
      "coords": [-92.8, -29.8],
      "name": "HeathrowTerminals123",
      "labelPos": "NW"
    },  {
          "coords": [-88.74, -26.04],
          "name": "HattonCross",
          "labelPos": "SE"
        },
    {
              "coords": [-86.26, -23.2],
              "name": "HunslowWest",
              "labelPos": "SE"
    },
    {
        "coords": [-83.8, -21.1],
        "name": "HunslowCentral",
        "labelPos": "SE"
    },
    {
        "coords": [-75, -15],
        "name": "HunslowEast",
        "labelPos": "SE"
    },
    {
        "coords": [-72, -12],
        "name": "Osterly",
        "labelPos": "SE"
    },
    {
        "coords": [-70, -10],
        "name": "BostonManor",
        "labelPos": "SE"
    },
    {
        "coords": [-84, -25],
        "name": "Northfields",
        "labelPos": "SE"
    },
    {
        "coords": [-84, -25],
        "name": "SouthEaling",
        "labelPos": "SE"
    },
    {
        "coords": [-84, -25],
        "name": "ActonTown",
        "labelPos": "SE"
    },
    {
        "coords": [-84, -25],
        "name": "TurnhamGreen",
        "labelPos": "SE"
    },
    {
        "coords": [-84, -25],
        "name": "Hammersmith",
        "labelPos": "SE"
    },
    {
        "coords": [-84, -25],
        "name": "BaronsCourt",
        "labelPos": "SE"
    },
    {
        "coords": [-84, -25],
        "name": "EarlsCourt",
        "labelPos": "SE"
    },
    {
        "coords": [-84, -25],
        "name": "GloucsterRoad",
        "labelPos": "SE"
    },
    {
        "coords": [-84, -25],
        "name": "SouthKensington",
        "labelPos": "SE"
    },
    {
        "coords": [-84, -25],
        "name": "Knightsbridge",
        "labelPos": "SE"
    },
    {
        "coords": [-84, -25],
        "name": "HydeParkCorner",
        "labelPos": "SE"
    },
    {
        "coords": [-84, -25],
        "name": "GreenPark",
        "labelPos": "SE"
    },
    {
        "coords": [-84, -25],
        "name": "PiccadillyCircus",
        "labelPos": "SE"
    },
    {
        "coords": [-84, -25],
        "name": "LeicesterSquare",
        "labelPos": "SE"
    },
    {
        "coords": [-84, -25],
        "name": "ConventGarden",
        "labelPos": "SE"
    },
    {
        "coords": [-84, -25],
        "name": "Holborn",
        "labelPos": "SE"
    },
    {
        "coords": [-84, -25],
        "name": "RussellSquare",
        "labelPos": "SE"
    },
    {
        "coords": [-84, -25],
        "name": "KingsCrossStPancras",
        "labelPos": "SE"
    },
    {
        "coords": [-84, -25],
        "name": "CaledonianRoad",
        "labelPos": "SE"
    },
    {
        "coords": [-84, -25],
        "name": "HollowayRoad",
        "labelPos": "SE"
    },
    {
        "coords": [-84, -25],
        "name": "Arsenal",
        "labelPos": "SE"
    },
    {
        "coords": [-84, -25],
        "name": "FinsburyPark",
        "labelPos": "SE"
    },

    {
        "coords": [-84, -25],
        "name": "ManorHouse",
        "labelPos": "SE"
    },
    {
        "coords": [-84, -25],
        "name": "TurnpikeLane",
        "labelPos": "SE"
    },
    {
        "coords": [-84, -25],
        "name": "WoodGreen",
        "labelPos": "SE"
    },
    {
        "coords": [-84, -25],
        "name": "BoundsGreen",
        "labelPos": "SE"
    },
    {
        "coords": [-84, -25],
        "name": "ArnosGrove",
        "labelPos": "SE"
    },
    {
        "coords": [-84, -25],
        "name": "SouthGate",
        "labelPos": "SE"
    },
    {
        "coords": [-84, -25],
        "name": "Oakwood",
        "labelPos": "SE"
    },
    {
        "coords": [-84, -25],
        "name": "Cockfosters",
        "labelPos": "SE"
    },

















    {
      "coords": [-70, -10]
    }, {
      "coords": [9, -6]
    }, {
      "coords": [11, 12]
    }, {
      "coords": [7, 14]
    }, {
      "coords": [9, 16]
    }, {
      "coords": [11, 17]
    }, {
      "coords": [50, 17]
    }, {
      "coords": [52, 18]
    }, {
      "coords": [76, 42]
    }]
  },
  {
    "name": "Picadilly(viaUxbridge)",
    "label": "Picadilly",
    "color": "#a0a5a9",
    "shiftCoords": [0, 0],
    "nodes": [  {
        "coords": [88, 38],
        "name": "Uxbridge",
        "labelPos": "SE"
      },   {
          "coords": [88, 38],
          "name": "Hillingdon",
          "labelPos": "SE"
        },
        {
          "coords": [88, 38],
          "name": "Ickenham",
          "labelPos": "SE"
        },
        {
          "coords": [88, 38],
          "name": "Ruislip",
          "labelPos": "SE"
        },
        {
          "coords": [88, 38],
          "name": "RuislipManor",
          "labelPos": "SE"
        },
        {
          "coords": [88, 38],
          "name": "Eastcote",
          "labelPos": "SE"
        },
        {
          "coords": [88, 38],
          "name": "RaynersLane",
          "labelPos": "SE"
        },
        {
          "coords": [88, 38],
          "name": "SouthHarrow",
          "labelPos": "SE"
        },
        {
          "coords": [88, 38],
          "name": "SudburyHill",
          "labelPos": "SE"
        },
        {
          "coords": [88, 38],
          "name": "SudburyTown",
          "labelPos": "SE"
        },
        {
          "coords": [88, 38],
          "name": "Alperton",
          "labelPos": "SE"
        },
        {
          "coords": [88, 38],
          "name": "ParkRoyal",
          "labelPos": "SE"
        },
        {
          "coords": [88, 38],
          "name": "NorthEaling",
          "labelPos": "SE"
        },
        {
          "coords": [88, 38],
          "name": "EalingCommon",
          "labelPos": "SE"
        },
        {
          "coords": [88, 38],
          "name": "ActonTown",
          "labelPos": "SE",
          "color": "#9b0056"
        }

      ]
    }],
  "river": {
    "name": "River",
    "label": "River",
    "shiftCoords": [0, 0],
    "nodes": [{
      "coords": [-97, -39]
    },{
      "coords": [-62.5, -39]
    },{
      "coords": [-62.5, -19]
    },{
      "coords": [-52, -19]
    },{
      "coords": [-45, -30]
    }, {
      "coords": [-17, -30]
    }, {
      "coords": [-5, -5]
    }, {
      "coords": [5, -5]
    }, {
      "coords": [7.5, -3]
    }, {
      "coords": [22.5, -3]
    }, {
      "coords": [22.5, -14]
    }, {
      "coords": [29, -14]
    }, {
      "coords": [29, -3.5]
    }, {
      "coords": [36, -3.5]
    },{
      "coords": [36, -12]
    },{
      "coords": [50, -12]
    }]
  }

}
